[
    {
        "id": 1,
        "lat": 52.3634368,
        "lon": 4.9303211,
        "name": "Bar Botanique Cafe Tropique",
        "price": 1.99
    },
    {
        "id": 2,
        "lat": 52.3737595,
        "lon": 4.8936095,
        "name": "De Roode Leeuw",
        "price": 0.0
    },
    {
        "id": 3,
        "lat": 52.3614013,
        "lon": 4.9247379,
        "name": "Eeuwige Jeugd",
        "price": 0.0
    },
    {
        "id": 4,
        "lat": 52.3605996,
        "lon": 4.925171,
        "name": "Five Brothers Fat",
        "price": 0.0
    },
    {
        "id": 5,
        "lat": 52.3622606,
        "lon": 4.92412,
        "name": "De Biertuin",
        "price": 0.0
    },
    {
        "id": 6,
        "lat": 52.355989,
        "lon": 4.9255604,
        "name": "Meram",
        "price": 0.0
    },
    {
        "id": 7,
        "lat": 52.3567889,
        "lon": 4.9186348,
        "name": "Caf\u00e9 Maxwell",
        "price": 0.0
    },
    {
        "id": 8,
        "lat": 52.3571259,
        "lon": 4.9177233,
        "name": "ThaiCoon",
        "price": 0.0
    },
    {
        "id": 9,
        "lat": 52.3548104,
        "lon": 4.9280958,
        "name": "Mojo",
        "price": 0.0
    },
    {
        "id": 10,
        "lat": 52.35425,
        "lon": 4.9269471,
        "name": "La Vallade",
        "price": 0.0
    },
    {
        "id": 11,
        "lat": 52.3483698,
        "lon": 4.9173053,
        "name": "Caf\u00e9-Restaurant Dauphine",
        "price": 0.0
    },
    {
        "id": 12,
        "lat": 52.3594947,
        "lon": 4.8973945,
        "name": "Caf\u00e9 Kale",
        "price": 0.0
    },
    {
        "id": 13,
        "lat": 52.3513357,
        "lon": 4.8911982,
        "name": "Gambrinus",
        "price": 0.0
    },
    {
        "id": 14,
        "lat": 52.3512963,
        "lon": 4.8894806,
        "name": "Fonk",
        "price": 0.0
    },
    {
        "id": 15,
        "lat": 52.3518527,
        "lon": 4.8950989,
        "name": "cafe BUHRS",
        "price": 0.0
    },
    {
        "id": 16,
        "lat": 52.3514961,
        "lon": 4.8911767,
        "name": "Volt",
        "price": 0.0
    },
    {
        "id": 17,
        "lat": 52.3511266,
        "lon": 4.8895103,
        "name": "Dusart",
        "price": 0.0
    },
    {
        "id": 18,
        "lat": 52.3566879,
        "lon": 4.8904823,
        "name": "Arie op de hoek",
        "price": 0.0
    },
    {
        "id": 19,
        "lat": 52.3451944,
        "lon": 4.9082519,
        "name": "Utage Sake Bar",
        "price": 0.0
    },
    {
        "id": 20,
        "lat": 52.3452521,
        "lon": 4.9058841,
        "name": "Kong Kha",
        "price": 0.0
    },
    {
        "id": 21,
        "lat": 52.3445658,
        "lon": 4.9061298,
        "name": "I Trulli",
        "price": 0.0
    },
    {
        "id": 22,
        "lat": 52.3481204,
        "lon": 4.8909926,
        "name": "Pizzeria San Marco",
        "price": 0.0
    },
    {
        "id": 23,
        "lat": 52.3457197,
        "lon": 4.9056866,
        "name": "Kong Ming",
        "price": 0.0
    },
    {
        "id": 24,
        "lat": 52.3482353,
        "lon": 4.9047332,
        "name": "Papa",
        "price": 0.0
    },
    {
        "id": 25,
        "lat": 52.3514674,
        "lon": 4.9034904,
        "name": "Phukradung",
        "price": 0.0
    },
    {
        "id": 26,
        "lat": 52.353296,
        "lon": 4.9027669,
        "name": "Frango",
        "price": 0.0
    },
    {
        "id": 27,
        "lat": 52.3543825,
        "lon": 4.8992429,
        "name": "Sarphaat",
        "price": 0.0
    },
    {
        "id": 28,
        "lat": 52.3531295,
        "lon": 4.892503,
        "name": "Kam Kee",
        "price": 0.0
    },
    {
        "id": 29,
        "lat": 52.3656085,
        "lon": 4.8679756,
        "name": "Bax",
        "price": 0.0
    },
    {
        "id": 30,
        "lat": 52.3764859,
        "lon": 4.9004724,
        "name": "Vermeer",
        "price": 0.0
    },
    {
        "id": 31,
        "lat": 52.3763121,
        "lon": 4.9001456,
        "name": "In't Aepjen",
        "price": 0.0
    },
    {
        "id": 32,
        "lat": 52.3760606,
        "lon": 4.9001777,
        "name": "Skek",
        "price": 0.0
    },
    {
        "id": 33,
        "lat": 52.3757843,
        "lon": 4.9007535,
        "name": "Geheim van de Smidt",
        "price": 0.0
    },
    {
        "id": 34,
        "lat": 52.3770851,
        "lon": 4.8979096,
        "name": "Park Plaza Brasserie",
        "price": 0.0
    },
    {
        "id": 35,
        "lat": 52.3759544,
        "lon": 4.8963754,
        "name": "Bravi Ragazzi",
        "price": 0.0
    },
    {
        "id": 36,
        "lat": 52.3737173,
        "lon": 4.8955245,
        "name": "Players",
        "price": 0.0
    },
    {
        "id": 37,
        "lat": 52.3741125,
        "lon": 4.8965373,
        "name": "Durty Nelly's",
        "price": 0.0
    },
    {
        "id": 38,
        "lat": 52.3746948,
        "lon": 4.8973185,
        "name": "Irish Pub Slainte",
        "price": 0.0
    },
    {
        "id": 39,
        "lat": 52.3631525,
        "lon": 4.9289933,
        "name": "Sweet Asia",
        "price": 0.0
    },
    {
        "id": 40,
        "lat": 52.3640109,
        "lon": 4.9200038,
        "name": "De Groene Olifant",
        "price": 0.0
    },
    {
        "id": 41,
        "lat": 52.3728379,
        "lon": 4.9011235,
        "name": "Cafe Stevens",
        "price": 0.0
    },
    {
        "id": 42,
        "lat": 52.3729769,
        "lon": 4.9011882,
        "name": "Nam Kee",
        "price": 0.0
    },
    {
        "id": 43,
        "lat": 52.3726299,
        "lon": 4.9010196,
        "name": "Cotton Club",
        "price": 0.0
    },
    {
        "id": 44,
        "lat": 52.3724859,
        "lon": 4.9009348,
        "name": "Bern",
        "price": 0.0
    },
    {
        "id": 45,
        "lat": 52.371915,
        "lon": 4.8991163,
        "name": "Song Kwae",
        "price": 0.0
    },
    {
        "id": 46,
        "lat": 52.3721371,
        "lon": 4.8993518,
        "name": "Temple Bar",
        "price": 0.0
    },
    {
        "id": 47,
        "lat": 52.3720321,
        "lon": 4.8992627,
        "name": "De Bekeerde Suster",
        "price": 0.0
    },
    {
        "id": 48,
        "lat": 52.3723799,
        "lon": 4.8995,
        "name": "Caf\u00e9 't Loosje",
        "price": 0.0
    },
    {
        "id": 49,
        "lat": 52.3724585,
        "lon": 4.8995457,
        "name": "Caf\u00e9 Del Mondo",
        "price": 0.0
    },
    {
        "id": 50,
        "lat": 52.3725409,
        "lon": 4.8996205,
        "name": "Caf\u00e9 Poco Loco",
        "price": 0.0
    },
    {
        "id": 51,
        "lat": 52.3727127,
        "lon": 4.8997837,
        "name": "Gewaeght Caf\u00e9",
        "price": 0.0
    },
    {
        "id": 52,
        "lat": 52.3729121,
        "lon": 4.8998889,
        "name": "Chao Phraya",
        "price": 0.0
    },
    {
        "id": 53,
        "lat": 52.3732425,
        "lon": 4.9001515,
        "name": "A Fusion",
        "price": 0.0
    },
    {
        "id": 54,
        "lat": 52.3737013,
        "lon": 4.9003096,
        "name": "Nam Kee",
        "price": 0.0
    },
    {
        "id": 55,
        "lat": 52.3740711,
        "lon": 4.9017078,
        "name": "Ristorante Italiano Piccolo Mondo",
        "price": 0.0
    },
    {
        "id": 56,
        "lat": 52.3656246,
        "lon": 4.8962329,
        "name": "Club Smokey",
        "price": 0.0
    },
    {
        "id": 57,
        "lat": 52.3666908,
        "lon": 4.8947159,
        "name": "El Torado Grill",
        "price": 0.0
    },
    {
        "id": 58,
        "lat": 52.3664515,
        "lon": 4.89674,
        "name": "Kitchen & Bar Van Rijn",
        "price": 0.0
    },
    {
        "id": 59,
        "lat": 52.365769,
        "lon": 4.897453,
        "name": "The Old Bell",
        "price": 0.0
    },
    {
        "id": 60,
        "lat": 52.3680595,
        "lon": 4.8953468,
        "name": "De Jaren",
        "price": 0.0
    },
    {
        "id": 61,
        "lat": 52.3704414,
        "lon": 4.9111074,
        "name": "Caf\u00e9 Scharrebier",
        "price": 0.0
    },
    {
        "id": 62,
        "lat": 52.371134,
        "lon": 4.9117046,
        "name": "de Kluis",
        "price": 0.0
    },
    {
        "id": 63,
        "lat": 52.3754583,
        "lon": 4.8974337,
        "name": "The Grasshopper",
        "price": 0.0
    },
    {
        "id": 64,
        "lat": 52.3507166,
        "lon": 4.8890862,
        "name": "Lust",
        "price": 0.0
    },
    {
        "id": 65,
        "lat": 52.3526942,
        "lon": 4.8892794,
        "name": "Hermes",
        "price": 0.0
    },
    {
        "id": 66,
        "lat": 52.3636562,
        "lon": 4.9032166,
        "name": "De Magere Brug",
        "price": 0.0
    },
    {
        "id": 67,
        "lat": 52.3665415,
        "lon": 4.9109737,
        "name": "Cafe Eik en Linde",
        "price": 0.0
    },
    {
        "id": 68,
        "lat": 52.3561778,
        "lon": 4.8927389,
        "name": "Het Paardje",
        "price": 0.0
    },
    {
        "id": 69,
        "lat": 52.3589397,
        "lon": 4.8842999,
        "name": "Cobra Caf\u00e9",
        "price": 0.0
    },
    {
        "id": 70,
        "lat": 52.3624354,
        "lon": 4.8879212,
        "name": "Caf\u00e9 Heuvel",
        "price": 0.0
    },
    {
        "id": 71,
        "lat": 52.3570184,
        "lon": 4.8749907,
        "name": "Gruter",
        "price": 0.0
    },
    {
        "id": 72,
        "lat": 52.3546759,
        "lon": 4.8530144,
        "name": "Gent",
        "price": 0.0
    },
    {
        "id": 73,
        "lat": 52.3842987,
        "lon": 4.8744439,
        "name": "Kamerz",
        "price": 0.0
    },
    {
        "id": 74,
        "lat": 52.3842205,
        "lon": 4.8682145,
        "name": "Caf\u00e9-Restaurant Amsterdam",
        "price": 0.0
    },
    {
        "id": 75,
        "lat": 52.3534426,
        "lon": 4.8824008,
        "name": "Wildschut",
        "price": 0.0
    },
    {
        "id": 76,
        "lat": 52.3519506,
        "lon": 4.8444223,
        "name": "Cedars",
        "price": 0.0
    },
    {
        "id": 77,
        "lat": 52.3415463,
        "lon": 4.8802689,
        "name": "As",
        "price": 0.0
    },
    {
        "id": 78,
        "lat": 52.3424865,
        "lon": 4.854536,
        "name": "Harbour Club Caf\u00e9",
        "price": 0.0
    },
    {
        "id": 79,
        "lat": 52.3689488,
        "lon": 4.9217468,
        "name": "Il Forno",
        "price": 0.0
    },
    {
        "id": 80,
        "lat": 52.3571286,
        "lon": 4.889014,
        "name": "Waaghals",
        "price": 0.0
    },
    {
        "id": 81,
        "lat": 52.3780018,
        "lon": 4.8865875,
        "name": "Kikkie",
        "price": 0.0
    },
    {
        "id": 82,
        "lat": 52.3709275,
        "lon": 4.895255,
        "name": "Bridges",
        "price": 0.0
    },
    {
        "id": 83,
        "lat": 52.3666601,
        "lon": 4.9263454,
        "name": "Brouwerij 't IJ",
        "price": 0.0
    },
    {
        "id": 84,
        "lat": 52.3516358,
        "lon": 4.8911783,
        "name": "Indiana Spices & Vibes",
        "price": 0.0
    },
    {
        "id": 85,
        "lat": 52.3530404,
        "lon": 4.8918487,
        "name": "Desa",
        "price": 0.0
    },
    {
        "id": 86,
        "lat": 52.3531385,
        "lon": 4.8925821,
        "name": "Pizza Taxi Da Paolo & Seba",
        "price": 0.0
    },
    {
        "id": 87,
        "lat": 52.3540322,
        "lon": 4.8938587,
        "name": "Toko Talaad Thai",
        "price": 0.0
    },
    {
        "id": 88,
        "lat": 52.3543439,
        "lon": 4.8936555,
        "name": "Boca's Park",
        "price": 0.0
    },
    {
        "id": 89,
        "lat": 52.3527351,
        "lon": 4.8895939,
        "name": "Samba Kitchen",
        "price": 0.0
    },
    {
        "id": 90,
        "lat": 52.3522054,
        "lon": 4.8878941,
        "name": "Thai Deum",
        "price": 0.0
    },
    {
        "id": 91,
        "lat": 52.3523455,
        "lon": 4.8889814,
        "name": "Pahop Thai",
        "price": 0.0
    },
    {
        "id": 92,
        "lat": 52.3522926,
        "lon": 4.8886309,
        "name": "Wild Sage",
        "price": 0.0
    },
    {
        "id": 93,
        "lat": 52.3519743,
        "lon": 4.8577378,
        "name": "Tapas bar Castro",
        "price": 0.0
    },
    {
        "id": 94,
        "lat": 52.3619174,
        "lon": 4.8991929,
        "name": "Onder de Ooievaar",
        "price": 0.0
    },
    {
        "id": 95,
        "lat": 52.3687836,
        "lon": 4.8853647,
        "name": "de Pels",
        "price": 0.0
    },
    {
        "id": 96,
        "lat": 52.3702533,
        "lon": 4.8887186,
        "name": "Cafe Gollem",
        "price": 0.0
    },
    {
        "id": 97,
        "lat": 52.3761636,
        "lon": 4.8951567,
        "name": "In de Wildeman",
        "price": 0.0
    },
    {
        "id": 98,
        "lat": 52.3717749,
        "lon": 4.8963879,
        "name": "Golden Chopsticks",
        "price": 0.0
    },
    {
        "id": 99,
        "lat": 52.3742998,
        "lon": 4.8919511,
        "name": "Eethuis Sie-Joe",
        "price": 0.0
    },
    {
        "id": 100,
        "lat": 52.3525648,
        "lon": 4.8908534,
        "name": "'t Podium",
        "price": 0.0
    },
    {
        "id": 101,
        "lat": 52.3837626,
        "lon": 4.9301104,
        "name": "Hotel De Goudfazant",
        "price": 0.0
    },
    {
        "id": 102,
        "lat": 52.3912178,
        "lon": 4.9382277,
        "name": "'t Sluisje",
        "price": 0.0
    },
    {
        "id": 103,
        "lat": 52.355831,
        "lon": 4.9276727,
        "name": "Cafe Sport",
        "price": 0.0
    },
    {
        "id": 104,
        "lat": 52.3555711,
        "lon": 4.9274741,
        "name": "Natraj",
        "price": 0.0
    },
    {
        "id": 105,
        "lat": 52.3552228,
        "lon": 4.9257723,
        "name": "Fuku Ramen",
        "price": 0.0
    },
    {
        "id": 106,
        "lat": 52.355173,
        "lon": 4.9289667,
        "name": "Kediri",
        "price": 0.0
    },
    {
        "id": 107,
        "lat": 52.3598914,
        "lon": 4.9256271,
        "name": "Kuijper",
        "price": 0.0
    },
    {
        "id": 108,
        "lat": 52.3602208,
        "lon": 4.9255204,
        "name": "Caffe Milo",
        "price": 0.0
    },
    {
        "id": 109,
        "lat": 52.3318651,
        "lon": 4.8915964,
        "name": "Rosarium",
        "price": 0.0
    },
    {
        "id": 110,
        "lat": 52.3686458,
        "lon": 4.8813577,
        "name": "Festina Lente",
        "price": 0.0
    },
    {
        "id": 111,
        "lat": 52.3566939,
        "lon": 4.927147,
        "name": "Yatta",
        "price": 0.0
    },
    {
        "id": 112,
        "lat": 52.3620563,
        "lon": 4.9282331,
        "name": "Kervan",
        "price": 0.0
    },
    {
        "id": 113,
        "lat": 52.3692724,
        "lon": 4.8930721,
        "name": "La Margarita",
        "price": 0.0
    },
    {
        "id": 114,
        "lat": 52.3512001,
        "lon": 4.85707,
        "name": "La Favola",
        "price": 0.0
    },
    {
        "id": 115,
        "lat": 52.3508915,
        "lon": 4.850327,
        "name": "TastoeAmsterdam",
        "price": 0.0
    },
    {
        "id": 116,
        "lat": 52.3517667,
        "lon": 4.8486443,
        "name": "Dizinghof",
        "price": 0.0
    },
    {
        "id": 117,
        "lat": 52.3517075,
        "lon": 4.8461606,
        "name": "Lokaal van de Stad",
        "price": 0.0
    },
    {
        "id": 118,
        "lat": 52.3455467,
        "lon": 4.9057738,
        "name": "Betty's",
        "price": 0.0
    },
    {
        "id": 119,
        "lat": 52.3662399,
        "lon": 4.9118164,
        "name": "Happy Corner",
        "price": 0.0
    },
    {
        "id": 120,
        "lat": 52.3660615,
        "lon": 4.9116659,
        "name": "Sapori Del Mondo",
        "price": 0.0
    },
    {
        "id": 121,
        "lat": 52.3637091,
        "lon": 4.9110862,
        "name": "Krater",
        "price": 0.0
    },
    {
        "id": 122,
        "lat": 52.3635596,
        "lon": 4.911176,
        "name": "Agora (mensa)",
        "price": 0.0
    },
    {
        "id": 123,
        "lat": 52.365674,
        "lon": 4.896587,
        "name": "Schiller",
        "price": 0.0
    },
    {
        "id": 124,
        "lat": 52.3676426,
        "lon": 4.8924135,
        "name": "La Place",
        "price": 0.0
    },
    {
        "id": 125,
        "lat": 52.3937619,
        "lon": 4.9138248,
        "name": "Pasouk",
        "price": 0.0
    },
    {
        "id": 126,
        "lat": 52.3666432,
        "lon": 4.91166,
        "name": "Cafe Koosje",
        "price": 0.0
    },
    {
        "id": 127,
        "lat": 52.3660271,
        "lon": 4.9116177,
        "name": "Palorma",
        "price": 0.0
    },
    {
        "id": 128,
        "lat": 52.3748634,
        "lon": 4.8838557,
        "name": "Pancakes Amsterdam",
        "price": 0.0
    },
    {
        "id": 129,
        "lat": 52.3722481,
        "lon": 4.8880984,
        "name": "Cafe het Molentje",
        "price": 0.0
    },
    {
        "id": 130,
        "lat": 52.3630054,
        "lon": 4.8987669,
        "name": "Soenda Kelapa",
        "price": 0.0
    },
    {
        "id": 131,
        "lat": 52.3654467,
        "lon": 4.8926577,
        "name": "Kramer",
        "price": 0.0
    },
    {
        "id": 132,
        "lat": 52.3735356,
        "lon": 4.9003082,
        "name": "Jasmine",
        "price": 0.0
    },
    {
        "id": 133,
        "lat": 52.3639694,
        "lon": 4.8844033,
        "name": "Bollywood Indian Restaurant",
        "price": 0.0
    },
    {
        "id": 134,
        "lat": 52.3641036,
        "lon": 4.8845382,
        "name": "Puri Mas Indonesisch Restaurant",
        "price": 0.0
    },
    {
        "id": 135,
        "lat": 52.3634907,
        "lon": 4.8985572,
        "name": "Tashi Deleg",
        "price": 0.0
    },
    {
        "id": 136,
        "lat": 52.3786322,
        "lon": 4.8483173,
        "name": "Bir Tat",
        "price": 0.0
    },
    {
        "id": 137,
        "lat": 52.3723195,
        "lon": 4.8952995,
        "name": "Wynand Fockink",
        "price": 0.0
    },
    {
        "id": 138,
        "lat": 52.3568126,
        "lon": 4.8792088,
        "name": "Brasserie Keyzer",
        "price": 0.0
    },
    {
        "id": 139,
        "lat": 52.3910512,
        "lon": 4.9107574,
        "name": "De Broeders",
        "price": 0.0
    },
    {
        "id": 140,
        "lat": 52.3579755,
        "lon": 4.878408,
        "name": "Small Talk",
        "price": 0.0
    },
    {
        "id": 141,
        "lat": 52.3658484,
        "lon": 4.8955024,
        "name": "La Madonnina",
        "price": 0.0
    },
    {
        "id": 142,
        "lat": 52.3753852,
        "lon": 4.901161,
        "name": "Bunga Mawar",
        "price": 0.0
    },
    {
        "id": 143,
        "lat": 52.3754456,
        "lon": 4.9011363,
        "name": "De Portugees",
        "price": 0.0
    },
    {
        "id": 144,
        "lat": 52.3977109,
        "lon": 4.8831779,
        "name": "",
        "price": 0.0
    },
    {
        "id": 145,
        "lat": 52.3664263,
        "lon": 4.8959522,
        "name": "Rembrandt Bar",
        "price": 0.0
    },
    {
        "id": 146,
        "lat": 52.3660898,
        "lon": 4.8935379,
        "name": "Caf\u00e9 Bar De Duivel",
        "price": 0.0
    },
    {
        "id": 147,
        "lat": 52.3775885,
        "lon": 4.8862637,
        "name": "The Pancake Bakery",
        "price": 0.0
    },
    {
        "id": 148,
        "lat": 52.3668601,
        "lon": 4.8712673,
        "name": "Kade West",
        "price": 0.0
    },
    {
        "id": 149,
        "lat": 52.3743286,
        "lon": 4.8915885,
        "name": "Lunch & Dinner",
        "price": 0.0
    },
    {
        "id": 150,
        "lat": 52.3744155,
        "lon": 4.8916595,
        "name": "Seafood Grill",
        "price": 0.0
    },
    {
        "id": 151,
        "lat": 52.3547606,
        "lon": 4.888633,
        "name": "Balti House",
        "price": 0.0
    },
    {
        "id": 152,
        "lat": 52.35585,
        "lon": 4.8884747,
        "name": "La Dilettante",
        "price": 0.0
    },
    {
        "id": 153,
        "lat": 52.356045,
        "lon": 4.8885043,
        "name": "LM",
        "price": 0.0
    },
    {
        "id": 154,
        "lat": 52.3570377,
        "lon": 4.8886451,
        "name": "ISSHIN",
        "price": 0.0
    },
    {
        "id": 155,
        "lat": 52.357371,
        "lon": 4.8887506,
        "name": "De 3 Vrienden",
        "price": 0.0
    },
    {
        "id": 156,
        "lat": 52.357778,
        "lon": 4.8887434,
        "name": "Le Restaurant",
        "price": 0.0
    },
    {
        "id": 157,
        "lat": 52.3584175,
        "lon": 4.8888704,
        "name": "Otaru",
        "price": 0.0
    },
    {
        "id": 158,
        "lat": 52.3606764,
        "lon": 4.8831414,
        "name": "Sama Sebo",
        "price": 0.0
    },
    {
        "id": 159,
        "lat": 52.3600875,
        "lon": 4.8797621,
        "name": "Maxies",
        "price": 0.0
    },
    {
        "id": 160,
        "lat": 52.3622867,
        "lon": 4.8742446,
        "name": "One Dim Sum",
        "price": 0.0
    },
    {
        "id": 161,
        "lat": 52.3621869,
        "lon": 4.8833077,
        "name": "Hard Rock Cafe",
        "price": 0.0
    },
    {
        "id": 162,
        "lat": 52.3629202,
        "lon": 4.8827502,
        "name": "Hosokawa",
        "price": 0.0
    },
    {
        "id": 163,
        "lat": 52.3621549,
        "lon": 4.8826848,
        "name": "Aran Irish Pub",
        "price": 0.0
    },
    {
        "id": 164,
        "lat": 52.3625079,
        "lon": 4.8831541,
        "name": "Wagamama",
        "price": 0.0
    },
    {
        "id": 165,
        "lat": 52.3622945,
        "lon": 4.8834726,
        "name": "Maximus Steak House",
        "price": 0.0
    },
    {
        "id": 166,
        "lat": 52.36312,
        "lon": 4.883101,
        "name": "De Balie",
        "price": 0.0
    },
    {
        "id": 167,
        "lat": 52.3622297,
        "lon": 4.8759194,
        "name": "Anmol",
        "price": 0.0
    },
    {
        "id": 168,
        "lat": 52.3638495,
        "lon": 4.874814,
        "name": "Veganees",
        "price": 0.0
    },
    {
        "id": 169,
        "lat": 52.3558535,
        "lon": 4.8710042,
        "name": "de Joffers",
        "price": 0.0
    },
    {
        "id": 170,
        "lat": 52.3556729,
        "lon": 4.8707638,
        "name": "Van Dam",
        "price": 0.0
    },
    {
        "id": 171,
        "lat": 52.3782364,
        "lon": 4.8834555,
        "name": "Caf\u00e9 Nol",
        "price": 0.0
    },
    {
        "id": 172,
        "lat": 52.3803326,
        "lon": 4.8822843,
        "name": "Caf\u00e9 Lowietje",
        "price": 0.0
    },
    {
        "id": 173,
        "lat": 52.3658481,
        "lon": 4.8733926,
        "name": "Dapper",
        "price": 0.0
    },
    {
        "id": 174,
        "lat": 52.3659848,
        "lon": 4.8728348,
        "name": "Miss Saigon",
        "price": 0.0
    },
    {
        "id": 175,
        "lat": 52.3574883,
        "lon": 4.9068874,
        "name": "De Ysbreeker",
        "price": 0.0
    },
    {
        "id": 176,
        "lat": 52.361334,
        "lon": 4.8626119,
        "name": "Barrica",
        "price": 0.0
    },
    {
        "id": 177,
        "lat": 52.360962,
        "lon": 4.8611643,
        "name": "Pizza Project",
        "price": 0.0
    },
    {
        "id": 178,
        "lat": 52.3909805,
        "lon": 4.9107492,
        "name": "Number 1",
        "price": 0.0
    },
    {
        "id": 179,
        "lat": 52.3629227,
        "lon": 4.8985161,
        "name": "Krom",
        "price": 0.0
    },
    {
        "id": 180,
        "lat": 52.3641699,
        "lon": 4.878117,
        "name": "Keu Poolcafe",
        "price": 0.0
    },
    {
        "id": 181,
        "lat": 52.3633776,
        "lon": 4.8751417,
        "name": "Caf\u00e9 Helmers",
        "price": 0.0
    },
    {
        "id": 182,
        "lat": 52.3664988,
        "lon": 4.8967404,
        "name": "De Kroon",
        "price": 0.0
    },
    {
        "id": 183,
        "lat": 52.3544049,
        "lon": 4.8935424,
        "name": "Caf\u00e9 Krull",
        "price": 0.0
    },
    {
        "id": 184,
        "lat": 52.3757889,
        "lon": 4.9002791,
        "name": "De Haven van Texel",
        "price": 0.0
    },
    {
        "id": 185,
        "lat": 52.3762358,
        "lon": 4.8994544,
        "name": "Kam Yin",
        "price": 0.0
    },
    {
        "id": 186,
        "lat": 52.3754007,
        "lon": 4.8864147,
        "name": "Brandon",
        "price": 0.0
    },
    {
        "id": 187,
        "lat": 52.3745529,
        "lon": 4.8899,
        "name": "Cafe Van Zuylen",
        "price": 0.0
    },
    {
        "id": 188,
        "lat": 52.3695387,
        "lon": 4.893742,
        "name": "Kapitein Zeppos",
        "price": 0.0
    },
    {
        "id": 189,
        "lat": 52.3708182,
        "lon": 4.9117106,
        "name": "Eenvistweevis",
        "price": 0.0
    },
    {
        "id": 190,
        "lat": 52.37798,
        "lon": 4.9016073,
        "name": "Eersteklas Restaurant",
        "price": 0.0
    },
    {
        "id": 191,
        "lat": 52.3693783,
        "lon": 4.9011316,
        "name": "Rembrandt Corner",
        "price": 0.0
    },
    {
        "id": 192,
        "lat": 52.3908543,
        "lon": 4.9131656,
        "name": "Blokker",
        "price": 0.0
    },
    {
        "id": 193,
        "lat": 52.3905819,
        "lon": 4.9139295,
        "name": "Bij Jan",
        "price": 0.0
    },
    {
        "id": 194,
        "lat": 52.3916569,
        "lon": 4.9129642,
        "name": "Max",
        "price": 0.0
    },
    {
        "id": 195,
        "lat": 52.3805158,
        "lon": 4.8908642,
        "name": "Ibericus Amsterdam",
        "price": 0.0
    },
    {
        "id": 196,
        "lat": 52.3802931,
        "lon": 4.8915534,
        "name": "Harlem",
        "price": 0.0
    },
    {
        "id": 197,
        "lat": 52.3804212,
        "lon": 4.8910656,
        "name": "De Blauwe Druif",
        "price": 0.0
    },
    {
        "id": 198,
        "lat": 52.3859803,
        "lon": 4.871489,
        "name": "Pacific Amsterdam",
        "price": 0.0
    },
    {
        "id": 199,
        "lat": 52.3689718,
        "lon": 4.9216625,
        "name": "Tom Yum Kung",
        "price": 0.0
    },
    {
        "id": 200,
        "lat": 52.3679286,
        "lon": 4.9254041,
        "name": "de Nieuwe Vaart",
        "price": 0.0
    },
    {
        "id": 201,
        "lat": 52.3766957,
        "lon": 4.8822395,
        "name": "La Oliva Pintxos y Vinos",
        "price": 0.0
    },
    {
        "id": 202,
        "lat": 52.3645665,
        "lon": 4.8829676,
        "name": "Hoopman",
        "price": 0.0
    },
    {
        "id": 203,
        "lat": 52.3743481,
        "lon": 4.8730425,
        "name": "Two Chefs Bar",
        "price": 0.0
    },
    {
        "id": 204,
        "lat": 52.401624,
        "lon": 4.8907024,
        "name": "",
        "price": 0.0
    },
    {
        "id": 205,
        "lat": 52.4017188,
        "lon": 4.8908216,
        "name": "",
        "price": 0.0
    },
    {
        "id": 206,
        "lat": 52.4013845,
        "lon": 4.8912298,
        "name": "",
        "price": 0.0
    },
    {
        "id": 207,
        "lat": 52.4014687,
        "lon": 4.8913355,
        "name": "",
        "price": 0.0
    },
    {
        "id": 208,
        "lat": 52.3484242,
        "lon": 4.9461682,
        "name": "",
        "price": 0.0
    },
    {
        "id": 209,
        "lat": 52.3485073,
        "lon": 4.9463445,
        "name": "",
        "price": 0.0
    },
    {
        "id": 210,
        "lat": 52.3486228,
        "lon": 4.9458549,
        "name": "",
        "price": 0.0
    },
    {
        "id": 211,
        "lat": 52.3486243,
        "lon": 4.9460497,
        "name": "",
        "price": 0.0
    },
    {
        "id": 212,
        "lat": 52.3485776,
        "lon": 4.9459263,
        "name": "",
        "price": 0.0
    },
    {
        "id": 213,
        "lat": 52.3489013,
        "lon": 4.9456126,
        "name": "",
        "price": 0.0
    },
    {
        "id": 214,
        "lat": 52.3486847,
        "lon": 4.9459543,
        "name": "",
        "price": 0.0
    },
    {
        "id": 215,
        "lat": 52.348841,
        "lon": 4.9455106,
        "name": "",
        "price": 0.0
    },
    {
        "id": 216,
        "lat": 52.3290481,
        "lon": 4.894859,
        "name": "",
        "price": 0.0
    },
    {
        "id": 217,
        "lat": 52.3384981,
        "lon": 4.9065964,
        "name": "",
        "price": 0.0
    },
    {
        "id": 218,
        "lat": 52.3384615,
        "lon": 4.9062006,
        "name": "",
        "price": 0.0
    },
    {
        "id": 219,
        "lat": 52.3383913,
        "lon": 4.9065693,
        "name": "",
        "price": 0.0
    },
    {
        "id": 220,
        "lat": 52.3384316,
        "lon": 4.906554,
        "name": "",
        "price": 0.0
    },
    {
        "id": 221,
        "lat": 52.3384804,
        "lon": 4.9065929,
        "name": "",
        "price": 0.0
    },
    {
        "id": 222,
        "lat": 52.33842,
        "lon": 4.9065924,
        "name": "",
        "price": 0.0
    },
    {
        "id": 223,
        "lat": 52.3384891,
        "lon": 4.9062226,
        "name": "",
        "price": 0.0
    },
    {
        "id": 224,
        "lat": 52.3385233,
        "lon": 4.9061091,
        "name": "",
        "price": 0.0
    },
    {
        "id": 225,
        "lat": 52.3385219,
        "lon": 4.9060715,
        "name": "",
        "price": 0.0
    },
    {
        "id": 226,
        "lat": 52.3385567,
        "lon": 4.9064756,
        "name": "",
        "price": 0.0
    },
    {
        "id": 227,
        "lat": 52.3386285,
        "lon": 4.9065357,
        "name": "",
        "price": 0.0
    },
    {
        "id": 228,
        "lat": 52.3386254,
        "lon": 4.9065456,
        "name": "",
        "price": 0.0
    },
    {
        "id": 229,
        "lat": 52.3387776,
        "lon": 4.9061162,
        "name": "",
        "price": 0.0
    },
    {
        "id": 230,
        "lat": 52.3385775,
        "lon": 4.906493,
        "name": "",
        "price": 0.0
    },
    {
        "id": 231,
        "lat": 52.3386453,
        "lon": 4.9065501,
        "name": "",
        "price": 0.0
    },
    {
        "id": 232,
        "lat": 52.3385152,
        "lon": 4.9065864,
        "name": "",
        "price": 0.0
    },
    {
        "id": 233,
        "lat": 52.3779136,
        "lon": 4.8864608,
        "name": "II Prinsen",
        "price": 0.0
    },
    {
        "id": 234,
        "lat": 52.371321,
        "lon": 4.8986226,
        "name": "Nyonya",
        "price": 0.0
    },
    {
        "id": 235,
        "lat": 52.3561456,
        "lon": 4.890821,
        "name": "Caf\u00e9 Gollem",
        "price": 0.0
    },
    {
        "id": 236,
        "lat": 52.3623441,
        "lon": 4.872977,
        "name": "Gollem",
        "price": 0.0
    },
    {
        "id": 237,
        "lat": 52.3697389,
        "lon": 4.8496044,
        "name": "Knibbel Knabbel Knuisje",
        "price": 0.0
    },
    {
        "id": 238,
        "lat": 52.3700812,
        "lon": 4.8514457,
        "name": "De Biertuin West",
        "price": 0.0
    },
    {
        "id": 239,
        "lat": 52.3712507,
        "lon": 4.8526367,
        "name": "Caf\u00e9 Cook",
        "price": 0.0
    },
    {
        "id": 240,
        "lat": 52.3636498,
        "lon": 4.8703874,
        "name": "WG Cafe",
        "price": 0.0
    },
    {
        "id": 241,
        "lat": 52.3460697,
        "lon": 4.8662367,
        "name": "The Red Sun",
        "price": 0.0
    },
    {
        "id": 242,
        "lat": 52.3460319,
        "lon": 4.8668971,
        "name": "Quartier Sud",
        "price": 0.0
    },
    {
        "id": 243,
        "lat": 52.3686609,
        "lon": 4.8887034,
        "name": "Caf\u00e9 Luxembourg",
        "price": 0.0
    },
    {
        "id": 244,
        "lat": 52.3645714,
        "lon": 4.8961886,
        "name": "Ponte Arcari",
        "price": 0.0
    },
    {
        "id": 245,
        "lat": 52.3807807,
        "lon": 4.8873628,
        "name": "Caf\u00e9 Thijssen",
        "price": 0.0
    },
    {
        "id": 246,
        "lat": 52.3794471,
        "lon": 4.8921366,
        "name": "De Belhamel",
        "price": 0.0
    },
    {
        "id": 247,
        "lat": 52.3654316,
        "lon": 4.9033085,
        "name": "Neva",
        "price": 0.0
    },
    {
        "id": 248,
        "lat": 52.3498636,
        "lon": 4.8397507,
        "name": "Golden Garden",
        "price": 0.0
    },
    {
        "id": 249,
        "lat": 52.3762924,
        "lon": 4.8996007,
        "name": "Old Nickel",
        "price": 0.0
    },
    {
        "id": 250,
        "lat": 52.3636953,
        "lon": 4.9105681,
        "name": "Oleg Pelmeni Bar",
        "price": 0.0
    },
    {
        "id": 251,
        "lat": 52.3637583,
        "lon": 4.9105976,
        "name": "Aguada",
        "price": 0.0
    },
    {
        "id": 252,
        "lat": 52.377503,
        "lon": 4.9004373,
        "name": "Loetje",
        "price": 0.0
    },
    {
        "id": 253,
        "lat": 52.3665017,
        "lon": 4.9193465,
        "name": "",
        "price": 0.0
    },
    {
        "id": 254,
        "lat": 52.3664771,
        "lon": 4.9191682,
        "name": "",
        "price": 0.0
    },
    {
        "id": 255,
        "lat": 52.3666915,
        "lon": 4.9185487,
        "name": "",
        "price": 0.0
    },
    {
        "id": 256,
        "lat": 52.3665431,
        "lon": 4.9192267,
        "name": "",
        "price": 0.0
    },
    {
        "id": 257,
        "lat": 52.3665407,
        "lon": 4.9193824,
        "name": "",
        "price": 0.0
    },
    {
        "id": 258,
        "lat": 52.3667815,
        "lon": 4.9186319,
        "name": "",
        "price": 0.0
    },
    {
        "id": 259,
        "lat": 52.3687949,
        "lon": 4.8885771,
        "name": "Hoppe",
        "price": 0.0
    },
    {
        "id": 260,
        "lat": 52.3686365,
        "lon": 4.9344655,
        "name": "Boulevard Cafe",
        "price": 0.0
    },
    {
        "id": 261,
        "lat": 52.3713201,
        "lon": 4.9401995,
        "name": "Cai & Cai",
        "price": 0.0
    },
    {
        "id": 262,
        "lat": 52.3636053,
        "lon": 4.8852731,
        "name": "Piccolino",
        "price": 0.0
    },
    {
        "id": 263,
        "lat": 52.3527533,
        "lon": 4.8479962,
        "name": "Caf\u00e9 Woestduin",
        "price": 0.0
    },
    {
        "id": 264,
        "lat": 52.3651201,
        "lon": 4.9362035,
        "name": "Studio/K",
        "price": 0.0
    },
    {
        "id": 265,
        "lat": 52.349584,
        "lon": 4.848888,
        "name": "The Magpie bar & brasserie",
        "price": 0.0
    },
    {
        "id": 266,
        "lat": 52.3510433,
        "lon": 4.8565512,
        "name": "Glatt Kosjer",
        "price": 0.0
    },
    {
        "id": 267,
        "lat": 52.3699774,
        "lon": 4.8822993,
        "name": "de Eland",
        "price": 0.0
    },
    {
        "id": 268,
        "lat": 52.3740057,
        "lon": 4.901904,
        "name": "O-Cha",
        "price": 0.0
    },
    {
        "id": 269,
        "lat": 52.3514471,
        "lon": 4.9209781,
        "name": "",
        "price": 0.0
    },
    {
        "id": 270,
        "lat": 52.3668636,
        "lon": 4.9258812,
        "name": "Caf\u00e9 Struis",
        "price": 0.0
    },
    {
        "id": 271,
        "lat": 52.3530178,
        "lon": 4.88724,
        "name": "Dartscafe Biergriet",
        "price": 0.0
    },
    {
        "id": 272,
        "lat": 52.3621881,
        "lon": 4.8676554,
        "name": "De Toog",
        "price": 0.0
    },
    {
        "id": 273,
        "lat": 52.3608089,
        "lon": 4.8830765,
        "name": "De Posthoorn",
        "price": 0.0
    },
    {
        "id": 274,
        "lat": 52.3698563,
        "lon": 4.9016848,
        "name": "Sluyswacht",
        "price": 0.0
    },
    {
        "id": 275,
        "lat": 52.369567,
        "lon": 4.9017206,
        "name": "Orff",
        "price": 0.0
    },
    {
        "id": 276,
        "lat": 52.3702265,
        "lon": 4.8984411,
        "name": "De Engelbewaarder",
        "price": 0.0
    },
    {
        "id": 277,
        "lat": 52.3615027,
        "lon": 4.8825862,
        "name": "Momo",
        "price": 0.0
    },
    {
        "id": 278,
        "lat": 52.3738722,
        "lon": 4.9022134,
        "name": "La Cubanita",
        "price": 0.0
    },
    {
        "id": 279,
        "lat": 52.3738401,
        "lon": 4.9022825,
        "name": "Italia Oggi",
        "price": 0.0
    },
    {
        "id": 280,
        "lat": 52.3731852,
        "lon": 4.9003415,
        "name": "Cafe de Zon",
        "price": 0.0
    },
    {
        "id": 281,
        "lat": 52.3291194,
        "lon": 4.8948234,
        "name": "",
        "price": 0.0
    },
    {
        "id": 282,
        "lat": 52.3482413,
        "lon": 4.8609154,
        "name": "Faa Thai",
        "price": 0.0
    },
    {
        "id": 283,
        "lat": 52.3626171,
        "lon": 4.88551,
        "name": "De Spuyt",
        "price": 0.0
    },
    {
        "id": 284,
        "lat": 52.3559611,
        "lon": 4.8772825,
        "name": "Cafe Welling",
        "price": 0.0
    },
    {
        "id": 285,
        "lat": 52.3747914,
        "lon": 4.8577787,
        "name": "Caf\u00e9 Sportpark",
        "price": 0.0
    },
    {
        "id": 286,
        "lat": 52.3568665,
        "lon": 4.9178946,
        "name": "Cervezeria",
        "price": 0.0
    },
    {
        "id": 287,
        "lat": 52.3754918,
        "lon": 4.9008899,
        "name": "Nossa Senhora",
        "price": 0.0
    },
    {
        "id": 288,
        "lat": 52.3621972,
        "lon": 4.8966302,
        "name": "Nel",
        "price": 0.0
    },
    {
        "id": 289,
        "lat": 52.3670112,
        "lon": 4.9120064,
        "name": "De Deli",
        "price": 0.0
    },
    {
        "id": 290,
        "lat": 52.3607475,
        "lon": 4.888122,
        "name": "Mankind",
        "price": 0.0
    },
    {
        "id": 291,
        "lat": 52.3778982,
        "lon": 4.8855738,
        "name": "New Dutch",
        "price": 0.0
    },
    {
        "id": 292,
        "lat": 52.360674,
        "lon": 4.9285149,
        "name": "Lalla Rookh",
        "price": 0.0
    },
    {
        "id": 293,
        "lat": 52.3712791,
        "lon": 4.8620491,
        "name": "Club 8",
        "price": 0.0
    },
    {
        "id": 294,
        "lat": 52.3715795,
        "lon": 4.9077158,
        "name": "Greetje",
        "price": 0.0
    },
    {
        "id": 295,
        "lat": 52.3712592,
        "lon": 4.8939709,
        "name": "Eetcaf\u00e9 de Brakke Grond",
        "price": 0.0
    },
    {
        "id": 296,
        "lat": 52.3758693,
        "lon": 4.9081512,
        "name": "Babel",
        "price": 0.0
    },
    {
        "id": 297,
        "lat": 52.3610702,
        "lon": 4.8992147,
        "name": "Oosterling",
        "price": 0.0
    },
    {
        "id": 298,
        "lat": 52.3498325,
        "lon": 4.9125658,
        "name": "Hesp",
        "price": 0.0
    },
    {
        "id": 299,
        "lat": 52.3678354,
        "lon": 4.9127949,
        "name": "Plancius",
        "price": 0.0
    },
    {
        "id": 300,
        "lat": 52.3688499,
        "lon": 4.9142406,
        "name": "Bloem",
        "price": 0.0
    },
    {
        "id": 301,
        "lat": 52.3715399,
        "lon": 4.8937076,
        "name": "van Kerkwijk",
        "price": 0.0
    },
    {
        "id": 302,
        "lat": 52.3683667,
        "lon": 4.8967663,
        "name": "Caf\u00e9 de Doelen",
        "price": 0.0
    },
    {
        "id": 303,
        "lat": 52.3729826,
        "lon": 4.8944251,
        "name": "Euro Pub",
        "price": 0.0
    },
    {
        "id": 304,
        "lat": 52.3682171,
        "lon": 4.8966138,
        "name": "Staalmeesters",
        "price": 0.0
    },
    {
        "id": 305,
        "lat": 52.3722193,
        "lon": 4.8752152,
        "name": "Akitsu",
        "price": 0.0
    },
    {
        "id": 306,
        "lat": 52.374158,
        "lon": 4.8726931,
        "name": "De Nieuwe Anita",
        "price": 0.0
    },
    {
        "id": 307,
        "lat": 52.3820616,
        "lon": 4.920205,
        "name": "Lowlander Botanical Bar & Restaurant",
        "price": 0.0
    },
    {
        "id": 308,
        "lat": 52.3555622,
        "lon": 4.9563361,
        "name": "Oerknal",
        "price": 0.0
    },
    {
        "id": 309,
        "lat": 52.369578,
        "lon": 4.8886397,
        "name": "d'Vijff Vlieghen",
        "price": 0.0
    },
    {
        "id": 310,
        "lat": 52.3765714,
        "lon": 4.8993287,
        "name": "Dwaze Zaken",
        "price": 0.0
    },
    {
        "id": 311,
        "lat": 52.3630587,
        "lon": 4.8851836,
        "name": "Oma",
        "price": 0.0
    },
    {
        "id": 312,
        "lat": 52.3628158,
        "lon": 4.8852388,
        "name": "Whiskycaf\u00e9 L&B",
        "price": 0.0
    },
    {
        "id": 313,
        "lat": 52.3738782,
        "lon": 4.8834764,
        "name": "Kalkhoven",
        "price": 0.0
    },
    {
        "id": 314,
        "lat": 52.3547948,
        "lon": 4.9331415,
        "name": "1900",
        "price": 0.0
    },
    {
        "id": 315,
        "lat": 52.3553428,
        "lon": 4.9377539,
        "name": "De Pizzabakkers",
        "price": 0.0
    },
    {
        "id": 316,
        "lat": 52.3750398,
        "lon": 4.9011141,
        "name": "Maria",
        "price": 0.0
    },
    {
        "id": 317,
        "lat": 52.3743423,
        "lon": 4.9005681,
        "name": "Oost-West",
        "price": 0.0
    },
    {
        "id": 318,
        "lat": 52.3755716,
        "lon": 4.9010328,
        "name": "Little Thai Prince",
        "price": 0.0
    },
    {
        "id": 319,
        "lat": 52.3752067,
        "lon": 4.9009395,
        "name": "San Francisco",
        "price": 0.0
    },
    {
        "id": 320,
        "lat": 52.3561729,
        "lon": 4.8928945,
        "name": "Mash",
        "price": 0.0
    },
    {
        "id": 321,
        "lat": 52.3677668,
        "lon": 4.8941167,
        "name": "Caf\u00e9 Katoen",
        "price": 0.0
    },
    {
        "id": 322,
        "lat": 52.3663295,
        "lon": 4.8982785,
        "name": "Brasserie Flo",
        "price": 0.0
    },
    {
        "id": 323,
        "lat": 52.3681585,
        "lon": 4.8980317,
        "name": "Krua Thai",
        "price": 0.0
    },
    {
        "id": 324,
        "lat": 52.3812414,
        "lon": 4.8734487,
        "name": "Kosmos",
        "price": 0.0
    },
    {
        "id": 325,
        "lat": 52.3841202,
        "lon": 4.8848361,
        "name": "Toscana",
        "price": 0.0
    },
    {
        "id": 326,
        "lat": 52.3842602,
        "lon": 4.884585,
        "name": "a Volo!",
        "price": 0.0
    },
    {
        "id": 327,
        "lat": 52.3829251,
        "lon": 4.8771881,
        "name": "Caf\u00e9 Nassau",
        "price": 0.0
    },
    {
        "id": 328,
        "lat": 52.3831496,
        "lon": 4.8864915,
        "name": "Sea Salt & Chocolate",
        "price": 0.0
    },
    {
        "id": 329,
        "lat": 52.3822345,
        "lon": 4.8881636,
        "name": "Caf\u00e9 de Poort",
        "price": 0.0
    },
    {
        "id": 330,
        "lat": 52.3823565,
        "lon": 4.8879424,
        "name": "Rosereijn",
        "price": 0.0
    },
    {
        "id": 331,
        "lat": 52.3796886,
        "lon": 4.8931984,
        "name": "Namaskar",
        "price": 0.0
    },
    {
        "id": 332,
        "lat": 52.3794045,
        "lon": 4.8937259,
        "name": "Rangoli",
        "price": 0.0
    },
    {
        "id": 333,
        "lat": 52.3803114,
        "lon": 4.8914837,
        "name": "Il Tramezzino",
        "price": 0.0
    },
    {
        "id": 334,
        "lat": 52.3793782,
        "lon": 4.8937715,
        "name": "Bistrot Neuf",
        "price": 0.0
    },
    {
        "id": 335,
        "lat": 52.380348,
        "lon": 4.8913443,
        "name": "San Pedro",
        "price": 0.0
    },
    {
        "id": 336,
        "lat": 52.3805781,
        "lon": 4.8907284,
        "name": "Dolce",
        "price": 0.0
    },
    {
        "id": 337,
        "lat": 52.3803846,
        "lon": 4.891205,
        "name": "Soupenzo",
        "price": 0.0
    },
    {
        "id": 338,
        "lat": 52.3495403,
        "lon": 4.904308,
        "name": "Kruabuppha",
        "price": 0.0
    },
    {
        "id": 339,
        "lat": 52.3578023,
        "lon": 4.9134058,
        "name": "Pica Pica",
        "price": 0.0
    },
    {
        "id": 340,
        "lat": 52.3584584,
        "lon": 4.9129258,
        "name": "Hearth",
        "price": 0.0
    },
    {
        "id": 341,
        "lat": 52.3641089,
        "lon": 4.8590875,
        "name": "Daalder",
        "price": 0.0
    },
    {
        "id": 342,
        "lat": 52.3512241,
        "lon": 4.9334141,
        "name": "Merkelbach",
        "price": 0.0
    },
    {
        "id": 343,
        "lat": 52.3547005,
        "lon": 4.9197846,
        "name": "Wonny's Eethuis",
        "price": 0.0
    },
    {
        "id": 344,
        "lat": 52.3564131,
        "lon": 4.9183693,
        "name": "Warung Domburg",
        "price": 0.0
    },
    {
        "id": 345,
        "lat": 52.3697596,
        "lon": 4.9368846,
        "name": "Sham",
        "price": 0.0
    },
    {
        "id": 346,
        "lat": 52.379811,
        "lon": 4.8527169,
        "name": "Caf\u00e9 Felix",
        "price": 0.0
    },
    {
        "id": 347,
        "lat": 52.3577036,
        "lon": 4.8995158,
        "name": "Saravanaa Bhavan",
        "price": 0.0
    },
    {
        "id": 348,
        "lat": 52.365493,
        "lon": 4.895531,
        "name": "Coco's Outback",
        "price": 0.0
    },
    {
        "id": 349,
        "lat": 52.3653391,
        "lon": 4.8961475,
        "name": "Ristorante Isola Bella",
        "price": 0.0
    },
    {
        "id": 350,
        "lat": 52.3642795,
        "lon": 4.8838952,
        "name": "Stoop & Stoop Eetcaf\u00e9",
        "price": 0.0
    },
    {
        "id": 351,
        "lat": 52.3662007,
        "lon": 4.8823021,
        "name": "Caf\u00e9 Pieper",
        "price": 0.0
    },
    {
        "id": 352,
        "lat": 52.3640344,
        "lon": 4.88345,
        "name": "Pancake Corner Restaurant",
        "price": 0.0
    },
    {
        "id": 353,
        "lat": 52.3635772,
        "lon": 4.8835286,
        "name": "Palladium Restaurant Club",
        "price": 0.0
    },
    {
        "id": 354,
        "lat": 52.370214,
        "lon": 4.8931552,
        "name": "The Tara",
        "price": 0.0
    },
    {
        "id": 355,
        "lat": 52.3718033,
        "lon": 4.8953952,
        "name": "Rock Planet",
        "price": 0.0
    },
    {
        "id": 356,
        "lat": 52.3693922,
        "lon": 4.8935292,
        "name": "Eetcaf\u00e9 't Gasthuys",
        "price": 0.0
    },
    {
        "id": 357,
        "lat": 52.3688767,
        "lon": 4.8911573,
        "name": "Rancho Steakhouse",
        "price": 0.0
    },
    {
        "id": 358,
        "lat": 52.3716626,
        "lon": 4.8952361,
        "name": "Susie's Saloon",
        "price": 0.0
    },
    {
        "id": 359,
        "lat": 52.3701184,
        "lon": 4.8935454,
        "name": "Bierfabriek",
        "price": 0.0
    },
    {
        "id": 360,
        "lat": 52.3685446,
        "lon": 4.8888368,
        "name": "De Brabantse Aap",
        "price": 0.0
    },
    {
        "id": 361,
        "lat": 52.3674539,
        "lon": 4.8943025,
        "name": "Restaurant Flore",
        "price": 0.0
    },
    {
        "id": 362,
        "lat": 52.3548097,
        "lon": 4.8936673,
        "name": "De Duvel",
        "price": 0.0
    },
    {
        "id": 363,
        "lat": 52.3718427,
        "lon": 4.8749777,
        "name": "Moeders",
        "price": 0.0
    },
    {
        "id": 364,
        "lat": 52.3729248,
        "lon": 4.8757394,
        "name": "The Soundgarden",
        "price": 0.0
    },
    {
        "id": 365,
        "lat": 52.374901,
        "lon": 4.8766421,
        "name": "Caf\u00e9 't Mannetje",
        "price": 0.0
    },
    {
        "id": 366,
        "lat": 52.3574253,
        "lon": 4.8911961,
        "name": "Nam Kee",
        "price": 0.0
    },
    {
        "id": 367,
        "lat": 52.370437,
        "lon": 4.8535558,
        "name": "Bar Baarsch",
        "price": 0.0
    },
    {
        "id": 368,
        "lat": 52.3710583,
        "lon": 4.8571118,
        "name": "Radijs",
        "price": 0.0
    },
    {
        "id": 369,
        "lat": 52.3521264,
        "lon": 4.8567933,
        "name": "Ron Gastrobar",
        "price": 0.0
    },
    {
        "id": 370,
        "lat": 52.3664389,
        "lon": 4.8829961,
        "name": "Casa Peru",
        "price": 0.0
    },
    {
        "id": 371,
        "lat": 52.372259,
        "lon": 4.8860225,
        "name": "Kagetsu",
        "price": 0.0
    },
    {
        "id": 372,
        "lat": 52.3657538,
        "lon": 4.8762315,
        "name": "Toussaint",
        "price": 0.0
    },
    {
        "id": 373,
        "lat": 52.3654913,
        "lon": 4.8763748,
        "name": "De Italiaan",
        "price": 0.0
    },
    {
        "id": 374,
        "lat": 52.375572,
        "lon": 4.8993901,
        "name": "Brouwerij \"De Prael\"",
        "price": 0.0
    },
    {
        "id": 375,
        "lat": 52.3679416,
        "lon": 4.8791952,
        "name": "Caf\u00e9 De Jonge Wees",
        "price": 0.0
    },
    {
        "id": 376,
        "lat": 52.3762931,
        "lon": 4.9115789,
        "name": "Hannekes Boom",
        "price": 0.0
    },
    {
        "id": 377,
        "lat": 52.3745288,
        "lon": 4.8970686,
        "name": "Kings Cross",
        "price": 0.0
    },
    {
        "id": 378,
        "lat": 52.3620505,
        "lon": 4.9501282,
        "name": "'t nieuwe diep",
        "price": 0.0
    },
    {
        "id": 379,
        "lat": 52.3649045,
        "lon": 4.8824617,
        "name": "Caf\u00e9 Eijlders",
        "price": 0.0
    },
    {
        "id": 380,
        "lat": 52.3572582,
        "lon": 4.9136886,
        "name": "Beyo\u011flu Restaurant & Cafe",
        "price": 0.0
    },
    {
        "id": 381,
        "lat": 52.3567746,
        "lon": 4.9118522,
        "name": "Marhaba",
        "price": 0.0
    },
    {
        "id": 382,
        "lat": 52.3809218,
        "lon": 4.9686461,
        "name": "Landmarkt Restaurant",
        "price": 0.0
    },
    {
        "id": 383,
        "lat": 52.3646621,
        "lon": 4.8825624,
        "name": "Chicago Social Club",
        "price": 0.0
    },
    {
        "id": 384,
        "lat": 52.3646222,
        "lon": 4.8825237,
        "name": "De Waard",
        "price": 0.0
    },
    {
        "id": 385,
        "lat": 52.3645793,
        "lon": 4.8824163,
        "name": "Caf\u00e9 Mokum",
        "price": 0.0
    },
    {
        "id": 386,
        "lat": 52.3645054,
        "lon": 4.8822704,
        "name": "Dan Murphy's Irish bar",
        "price": 0.0
    },
    {
        "id": 387,
        "lat": 52.3646578,
        "lon": 4.8828438,
        "name": "Hole in the Wall",
        "price": 0.0
    },
    {
        "id": 388,
        "lat": 52.3646163,
        "lon": 4.8829038,
        "name": "Reijnders",
        "price": 0.0
    },
    {
        "id": 389,
        "lat": 52.3644921,
        "lon": 4.883103,
        "name": "Le Pub",
        "price": 0.0
    },
    {
        "id": 390,
        "lat": 52.3647013,
        "lon": 4.8827741,
        "name": "de Oesterbar",
        "price": 0.0
    },
    {
        "id": 391,
        "lat": 52.3790963,
        "lon": 4.8862663,
        "name": "",
        "price": 0.0
    },
    {
        "id": 392,
        "lat": 52.3790626,
        "lon": 4.8862792,
        "name": "",
        "price": 0.0
    },
    {
        "id": 393,
        "lat": 52.3774711,
        "lon": 4.859499,
        "name": "Van de Buurt",
        "price": 0.0
    },
    {
        "id": 394,
        "lat": 52.3610861,
        "lon": 4.8699879,
        "name": "Plan B",
        "price": 0.0
    },
    {
        "id": 395,
        "lat": 52.352791,
        "lon": 4.8955288,
        "name": "Van den Broek Biljarts",
        "price": 0.0
    },
    {
        "id": 396,
        "lat": 52.3636482,
        "lon": 4.88489,
        "name": "Antonio's Restaurante",
        "price": 0.0
    },
    {
        "id": 397,
        "lat": 52.3639322,
        "lon": 4.8847921,
        "name": "Bojo",
        "price": 0.0
    },
    {
        "id": 398,
        "lat": 52.363749,
        "lon": 4.8847449,
        "name": "Chicano's",
        "price": 0.0
    },
    {
        "id": 399,
        "lat": 52.363814,
        "lon": 4.8846446,
        "name": "Cooldown Cafe",
        "price": 0.0
    },
    {
        "id": 400,
        "lat": 52.3635484,
        "lon": 4.8847235,
        "name": "De blauwe Hollander",
        "price": 0.0
    },
    {
        "id": 401,
        "lat": 52.3638816,
        "lon": 4.8845402,
        "name": "El Rancho",
        "price": 0.0
    },
    {
        "id": 402,
        "lat": 52.3643571,
        "lon": 4.8841943,
        "name": "Greek",
        "price": 0.0
    },
    {
        "id": 403,
        "lat": 52.3641519,
        "lon": 4.8844625,
        "name": "Het feest van Joop",
        "price": 0.0
    },
    {
        "id": 404,
        "lat": 52.3642942,
        "lon": 4.8842525,
        "name": "Los Amigos",
        "price": 0.0
    },
    {
        "id": 405,
        "lat": 52.3642096,
        "lon": 4.8843814,
        "name": "Mimo",
        "price": 0.0
    },
    {
        "id": 406,
        "lat": 52.3640102,
        "lon": 4.8846815,
        "name": "Mykonos",
        "price": 0.0
    },
    {
        "id": 407,
        "lat": 52.3644198,
        "lon": 4.8841433,
        "name": "O' Sole Mio",
        "price": 0.0
    },
    {
        "id": 408,
        "lat": 52.3634912,
        "lon": 4.8846075,
        "name": "Peppino",
        "price": 0.0
    },
    {
        "id": 409,
        "lat": 52.3644852,
        "lon": 4.8839811,
        "name": "Pisa",
        "price": 0.0
    },
    {
        "id": 410,
        "lat": 52.3641259,
        "lon": 4.8842311,
        "name": "Royal Thai",
        "price": 0.0
    },
    {
        "id": 411,
        "lat": 52.3637854,
        "lon": 4.8849795,
        "name": "Tapas",
        "price": 0.0
    },
    {
        "id": 412,
        "lat": 52.3637257,
        "lon": 4.8851083,
        "name": "Zorba de Griek",
        "price": 0.0
    },
    {
        "id": 413,
        "lat": 52.3641938,
        "lon": 4.8840332,
        "name": "Do Brasil",
        "price": 0.0
    },
    {
        "id": 414,
        "lat": 52.3767194,
        "lon": 4.8841388,
        "name": "'t Smalle",
        "price": 0.0
    },
    {
        "id": 415,
        "lat": 52.3618245,
        "lon": 4.9004947,
        "name": "Utrechtsedwarstafel",
        "price": 0.0
    },
    {
        "id": 416,
        "lat": 52.3631784,
        "lon": 4.8846914,
        "name": "\"Mama\"",
        "price": 0.0
    },
    {
        "id": 417,
        "lat": 52.3632034,
        "lon": 4.8841496,
        "name": "Players",
        "price": 0.0
    },
    {
        "id": 418,
        "lat": 52.3633259,
        "lon": 4.8856607,
        "name": "Caprice",
        "price": 0.0
    },
    {
        "id": 419,
        "lat": 52.3622463,
        "lon": 4.8860477,
        "name": "De Saloon",
        "price": 0.0
    },
    {
        "id": 420,
        "lat": 52.3628586,
        "lon": 4.8850519,
        "name": "Ceppi\u2019s",
        "price": 0.0
    },
    {
        "id": 421,
        "lat": 52.3635176,
        "lon": 4.8854166,
        "name": "El Patio Granada",
        "price": 0.0
    },
    {
        "id": 422,
        "lat": 52.3623426,
        "lon": 4.8861759,
        "name": "Mayur",
        "price": 0.0
    },
    {
        "id": 423,
        "lat": 52.3630261,
        "lon": 4.8845121,
        "name": "In de Buurt",
        "price": 0.0
    },
    {
        "id": 424,
        "lat": 52.3634013,
        "lon": 4.8852647,
        "name": "Porto Carrara",
        "price": 0.0
    },
    {
        "id": 425,
        "lat": 52.3631367,
        "lon": 4.8847519,
        "name": "Sherpa",
        "price": 0.0
    },
    {
        "id": 426,
        "lat": 52.3631049,
        "lon": 4.8851368,
        "name": "Taste of Culture",
        "price": 0.0
    },
    {
        "id": 427,
        "lat": 52.3634788,
        "lon": 4.8854314,
        "name": "De Margaritabar",
        "price": 0.0
    },
    {
        "id": 428,
        "lat": 52.3627104,
        "lon": 4.8856869,
        "name": "De Gieter",
        "price": 0.0
    },
    {
        "id": 429,
        "lat": 52.3622155,
        "lon": 4.8863365,
        "name": "De Spiegel",
        "price": 0.0
    },
    {
        "id": 430,
        "lat": 52.3639005,
        "lon": 4.8848889,
        "name": "El Vino",
        "price": 0.0
    },
    {
        "id": 431,
        "lat": 52.3651399,
        "lon": 4.8826496,
        "name": "Bombay inn",
        "price": 0.0
    },
    {
        "id": 432,
        "lat": 52.3638783,
        "lon": 4.8853499,
        "name": "Bourbon Street Music Club",
        "price": 0.0
    },
    {
        "id": 433,
        "lat": 52.3636437,
        "lon": 4.8853422,
        "name": "Granada",
        "price": 0.0
    },
    {
        "id": 434,
        "lat": 52.3638952,
        "lon": 4.8854331,
        "name": "Japan Inn",
        "price": 0.0
    },
    {
        "id": 435,
        "lat": 52.3637143,
        "lon": 4.8854787,
        "name": "Los Argentinos",
        "price": 0.0
    },
    {
        "id": 436,
        "lat": 52.36368,
        "lon": 4.8854104,
        "name": "Moshi Moshi",
        "price": 0.0
    },
    {
        "id": 437,
        "lat": 52.3650182,
        "lon": 4.8828626,
        "name": "The Guru of India",
        "price": 0.0
    },
    {
        "id": 438,
        "lat": 52.366767,
        "lon": 4.8896227,
        "name": "Phutakun",
        "price": 0.0
    },
    {
        "id": 439,
        "lat": 52.3668154,
        "lon": 4.8894711,
        "name": "Rossini",
        "price": 0.0
    },
    {
        "id": 440,
        "lat": 52.366149,
        "lon": 4.897694,
        "name": "Shisho",
        "price": 0.0
    },
    {
        "id": 441,
        "lat": 52.3753211,
        "lon": 4.8982122,
        "name": "Hotel & Bar 55",
        "price": 0.0
    },
    {
        "id": 442,
        "lat": 52.374537,
        "lon": 4.8968609,
        "name": "Stone's Cafe",
        "price": 0.0
    },
    {
        "id": 443,
        "lat": 52.3746491,
        "lon": 4.897024,
        "name": "Eagle",
        "price": 0.0
    },
    {
        "id": 444,
        "lat": 52.3579815,
        "lon": 4.8539107,
        "name": "Surabaya-Green",
        "price": 0.0
    },
    {
        "id": 445,
        "lat": 52.360026,
        "lon": 4.9259729,
        "name": "La Suite",
        "price": 0.0
    },
    {
        "id": 446,
        "lat": 52.3615654,
        "lon": 4.9360954,
        "name": "Vishandel Rinkoen",
        "price": 0.0
    },
    {
        "id": 447,
        "lat": 52.3767095,
        "lon": 4.8892599,
        "name": "Arendsnest",
        "price": 0.0
    },
    {
        "id": 448,
        "lat": 52.3767975,
        "lon": 4.8893249,
        "name": "Lieve",
        "price": 0.0
    },
    {
        "id": 449,
        "lat": 52.3765171,
        "lon": 4.9376651,
        "name": "De Zuid",
        "price": 0.0
    },
    {
        "id": 450,
        "lat": 52.377159,
        "lon": 4.9400559,
        "name": "De Kompaszaal",
        "price": 0.0
    },
    {
        "id": 451,
        "lat": 52.3769496,
        "lon": 4.9214435,
        "name": "Magazzino",
        "price": 0.0
    },
    {
        "id": 452,
        "lat": 52.3741862,
        "lon": 4.9355475,
        "name": "De Cantine",
        "price": 0.0
    },
    {
        "id": 453,
        "lat": 52.3740065,
        "lon": 4.9363092,
        "name": "De Nieuwe KHL",
        "price": 0.0
    },
    {
        "id": 454,
        "lat": 52.3658993,
        "lon": 4.9339102,
        "name": "Het Pompstation",
        "price": 0.0
    },
    {
        "id": 455,
        "lat": 52.3719675,
        "lon": 4.9313951,
        "name": "VRR",
        "price": 0.0
    },
    {
        "id": 456,
        "lat": 52.3752102,
        "lon": 4.8808005,
        "name": "De Nieuwe Lelie",
        "price": 0.0
    },
    {
        "id": 457,
        "lat": 52.3765161,
        "lon": 4.9415271,
        "name": "Bonboon",
        "price": 0.0
    },
    {
        "id": 458,
        "lat": 52.3757295,
        "lon": 4.8825261,
        "name": "De Reiger",
        "price": 0.0
    },
    {
        "id": 459,
        "lat": 52.3757377,
        "lon": 4.8825985,
        "name": "De Reiger",
        "price": 0.0
    },
    {
        "id": 460,
        "lat": 52.3531609,
        "lon": 4.9318877,
        "name": "Elsa's",
        "price": 0.0
    },
    {
        "id": 461,
        "lat": 52.359298,
        "lon": 4.9254798,
        "name": "Lin Wah",
        "price": 0.0
    },
    {
        "id": 462,
        "lat": 52.3574175,
        "lon": 4.9266814,
        "name": "Ruk en Pluk",
        "price": 0.0
    },
    {
        "id": 463,
        "lat": 52.3537104,
        "lon": 4.930985,
        "name": "Maan",
        "price": 0.0
    },
    {
        "id": 464,
        "lat": 52.3871553,
        "lon": 4.8697708,
        "name": "Westergasterras",
        "price": 0.0
    },
    {
        "id": 465,
        "lat": 52.3798108,
        "lon": 4.8808038,
        "name": "Caramba!",
        "price": 0.0
    },
    {
        "id": 466,
        "lat": 52.3736441,
        "lon": 4.8811373,
        "name": "Long Pura",
        "price": 0.0
    },
    {
        "id": 467,
        "lat": 52.3737931,
        "lon": 4.8816805,
        "name": "Amstel Caf\u00e9",
        "price": 0.0
    },
    {
        "id": 468,
        "lat": 52.373391,
        "lon": 4.8793053,
        "name": "Chow",
        "price": 0.0
    },
    {
        "id": 469,
        "lat": 52.3635809,
        "lon": 4.9403751,
        "name": "Wilde Zwijnen",
        "price": 0.0
    },
    {
        "id": 470,
        "lat": 52.3628007,
        "lon": 4.8838974,
        "name": "Pancake Corner",
        "price": 0.0
    },
    {
        "id": 471,
        "lat": 52.3742612,
        "lon": 4.8727615,
        "name": "Azur Bleu",
        "price": 0.0
    },
    {
        "id": 472,
        "lat": 52.3748,
        "lon": 4.8733,
        "name": "Orontes West",
        "price": 0.0
    },
    {
        "id": 473,
        "lat": 52.3593177,
        "lon": 4.9135842,
        "name": "Marits",
        "price": 0.0
    },
    {
        "id": 474,
        "lat": 52.3836547,
        "lon": 4.8789597,
        "name": "Queen of Sheba",
        "price": 0.0
    },
    {
        "id": 475,
        "lat": 52.35981,
        "lon": 4.8901195,
        "name": "Cafe Brecht",
        "price": 0.0
    },
    {
        "id": 476,
        "lat": 52.3539315,
        "lon": 4.8542756,
        "name": "MKZ",
        "price": 0.0
    },
    {
        "id": 477,
        "lat": 52.3625145,
        "lon": 4.8643161,
        "name": "Gebrouwen door Vrouwen",
        "price": 0.0
    },
    {
        "id": 478,
        "lat": 52.339909,
        "lon": 4.872697,
        "name": "Wagamama",
        "price": 0.0
    },
    {
        "id": 479,
        "lat": 52.362435,
        "lon": 4.8640063,
        "name": "Saffraan",
        "price": 0.0
    },
    {
        "id": 480,
        "lat": 52.3640487,
        "lon": 4.8633395,
        "name": "Kashmir Lounge",
        "price": 0.0
    },
    {
        "id": 481,
        "lat": 52.3597871,
        "lon": 4.8599718,
        "name": "Forno Communale",
        "price": 0.0
    },
    {
        "id": 482,
        "lat": 52.35998,
        "lon": 4.8633667,
        "name": "Parck",
        "price": 0.0
    },
    {
        "id": 483,
        "lat": 52.3601143,
        "lon": 4.8655588,
        "name": "OT301",
        "price": 0.0
    },
    {
        "id": 484,
        "lat": 52.3609618,
        "lon": 4.8655535,
        "name": "Lalibela",
        "price": 0.0
    },
    {
        "id": 485,
        "lat": 52.3609457,
        "lon": 4.8654724,
        "name": "Gangnam chicken",
        "price": 0.0
    },
    {
        "id": 486,
        "lat": 52.375358,
        "lon": 4.898286,
        "name": "Getto",
        "price": 0.0
    },
    {
        "id": 487,
        "lat": 52.3748089,
        "lon": 4.8924356,
        "name": "Kaagman & Kortekaas",
        "price": 0.0
    },
    {
        "id": 488,
        "lat": 52.369028,
        "lon": 4.8955526,
        "name": "Atrium",
        "price": 0.0
    },
    {
        "id": 489,
        "lat": 52.3640307,
        "lon": 4.8805712,
        "name": "De Smoeshaan",
        "price": 0.0
    },
    {
        "id": 490,
        "lat": 52.3514585,
        "lon": 4.8715594,
        "name": "Roberto's Restaurant",
        "price": 0.0
    },
    {
        "id": 491,
        "lat": 52.3512586,
        "lon": 4.8743677,
        "name": "Kersentuin",
        "price": 0.0
    },
    {
        "id": 492,
        "lat": 52.3543672,
        "lon": 4.8842366,
        "name": "Caf\u00e9 Loetje",
        "price": 0.0
    },
    {
        "id": 493,
        "lat": 52.350895,
        "lon": 4.8500652,
        "name": "Toko Sinar Mas",
        "price": 0.0
    },
    {
        "id": 494,
        "lat": 52.369645,
        "lon": 4.9007445,
        "name": "Tisfris",
        "price": 0.0
    },
    {
        "id": 495,
        "lat": 52.3360706,
        "lon": 4.8737039,
        "name": "Bolenius",
        "price": 0.0
    },
    {
        "id": 496,
        "lat": 52.3736127,
        "lon": 4.9003001,
        "name": "New King",
        "price": 0.0
    },
    {
        "id": 497,
        "lat": 52.370287,
        "lon": 4.8802861,
        "name": "Saarein",
        "price": 0.0
    },
    {
        "id": 498,
        "lat": 52.3714226,
        "lon": 4.9223304,
        "name": "",
        "price": 0.0
    },
    {
        "id": 499,
        "lat": 52.3714642,
        "lon": 4.922399,
        "name": "",
        "price": 0.0
    },
    {
        "id": 500,
        "lat": 52.3714835,
        "lon": 4.9222313,
        "name": "",
        "price": 0.0
    },
    {
        "id": 501,
        "lat": 52.3715251,
        "lon": 4.9223,
        "name": "",
        "price": 0.0
    },
    {
        "id": 502,
        "lat": 52.3668687,
        "lon": 4.895663,
        "name": "Amstel 54",
        "price": 0.0
    },
    {
        "id": 503,
        "lat": 52.366943,
        "lon": 4.8944287,
        "name": "Wapen van Londen",
        "price": 0.0
    },
    {
        "id": 504,
        "lat": 52.366956,
        "lon": 4.8968557,
        "name": "Blin Queen",
        "price": 0.0
    },
    {
        "id": 505,
        "lat": 52.3660948,
        "lon": 4.8999054,
        "name": "Gollem",
        "price": 0.0
    },
    {
        "id": 506,
        "lat": 52.366561,
        "lon": 4.895936,
        "name": "Montmartre",
        "price": 0.0
    },
    {
        "id": 507,
        "lat": 52.3665536,
        "lon": 4.8957327,
        "name": "Lunar Bar",
        "price": 0.0
    },
    {
        "id": 508,
        "lat": 52.374815,
        "lon": 4.900983,
        "name": "'t Mandje",
        "price": 0.0
    },
    {
        "id": 509,
        "lat": 52.3763379,
        "lon": 4.9022053,
        "name": "VOC Caf\u00e9",
        "price": 0.0
    },
    {
        "id": 510,
        "lat": 52.3666351,
        "lon": 4.8899888,
        "name": "Middl Eat",
        "price": 0.0
    },
    {
        "id": 511,
        "lat": 52.3662911,
        "lon": 4.8909603,
        "name": "Soho",
        "price": 0.0
    },
    {
        "id": 512,
        "lat": 52.3662189,
        "lon": 4.8914911,
        "name": "BLEND XL",
        "price": 0.0
    },
    {
        "id": 513,
        "lat": 52.3664557,
        "lon": 4.8909886,
        "name": "Taboo",
        "price": 0.0
    },
    {
        "id": 514,
        "lat": 52.3658704,
        "lon": 4.8952407,
        "name": "Reality",
        "price": 0.0
    },
    {
        "id": 515,
        "lat": 52.3716443,
        "lon": 4.9074757,
        "name": "Gebr. Hartering",
        "price": 0.0
    },
    {
        "id": 516,
        "lat": 52.3765273,
        "lon": 4.8956641,
        "name": "The Red Wine District",
        "price": 0.0
    },
    {
        "id": 517,
        "lat": 52.3765096,
        "lon": 4.8957377,
        "name": "The Web",
        "price": 0.0
    },
    {
        "id": 518,
        "lat": 52.3763554,
        "lon": 4.8949926,
        "name": "Cuckoo's Nest",
        "price": 0.0
    },
    {
        "id": 519,
        "lat": 52.3747299,
        "lon": 4.8971308,
        "name": "Dirty Dick's",
        "price": 0.0
    },
    {
        "id": 520,
        "lat": 52.3656807,
        "lon": 4.897438,
        "name": "Lellebel",
        "price": 0.0
    },
    {
        "id": 521,
        "lat": 52.3747124,
        "lon": 4.8908445,
        "name": "Prik",
        "price": 0.0
    },
    {
        "id": 522,
        "lat": 52.3652055,
        "lon": 4.8856002,
        "name": "Club Church",
        "price": 0.0
    },
    {
        "id": 523,
        "lat": 52.3505332,
        "lon": 4.889167,
        "name": "Tjing Tjing",
        "price": 0.0
    },
    {
        "id": 524,
        "lat": 52.3728915,
        "lon": 4.8780769,
        "name": "Shoarma Mesut 2",
        "price": 0.0
    },
    {
        "id": 525,
        "lat": 52.380166,
        "lon": 4.8852817,
        "name": "Toscanini Deli",
        "price": 0.0
    },
    {
        "id": 526,
        "lat": 52.3444664,
        "lon": 4.8893218,
        "name": "Hakata Senpachi",
        "price": 0.0
    },
    {
        "id": 527,
        "lat": 52.386837,
        "lon": 4.908566,
        "name": "Il Pecorino",
        "price": 0.0
    },
    {
        "id": 528,
        "lat": 52.366213,
        "lon": 4.8813746,
        "name": "De Zotte",
        "price": 0.0
    },
    {
        "id": 529,
        "lat": 52.3665692,
        "lon": 4.8692063,
        "name": "Takumi Ramen",
        "price": 0.0
    },
    {
        "id": 530,
        "lat": 52.3717498,
        "lon": 4.8792844,
        "name": "Rooie Nelis",
        "price": 0.0
    },
    {
        "id": 531,
        "lat": 52.3614794,
        "lon": 4.8836467,
        "name": "Srikandi",
        "price": 0.0
    },
    {
        "id": 532,
        "lat": 52.3837077,
        "lon": 4.9049668,
        "name": "Bar Tolhuistuin",
        "price": 0.0
    },
    {
        "id": 533,
        "lat": 52.3743146,
        "lon": 4.8930894,
        "name": "Caf\u00e9 Belgique",
        "price": 0.0
    },
    {
        "id": 534,
        "lat": 52.3742929,
        "lon": 4.8921822,
        "name": "La Cantina",
        "price": 0.0
    },
    {
        "id": 535,
        "lat": 52.3743114,
        "lon": 4.8923128,
        "name": "De Drie Fleschjes",
        "price": 0.0
    },
    {
        "id": 536,
        "lat": 52.3704351,
        "lon": 4.8842823,
        "name": "De Struisvogel",
        "price": 0.0
    },
    {
        "id": 537,
        "lat": 52.3704557,
        "lon": 4.8838082,
        "name": "Het Zwaantje",
        "price": 0.0
    },
    {
        "id": 538,
        "lat": 52.3741514,
        "lon": 4.9347391,
        "name": "Lloyd Hotel",
        "price": 0.0
    },
    {
        "id": 539,
        "lat": 52.3756793,
        "lon": 4.9009356,
        "name": "Al Argentino",
        "price": 0.0
    },
    {
        "id": 540,
        "lat": 52.3750547,
        "lon": 4.9008836,
        "name": "Azzurro",
        "price": 0.0
    },
    {
        "id": 541,
        "lat": 52.3755318,
        "lon": 4.9008246,
        "name": "Casablanca",
        "price": 0.0
    },
    {
        "id": 542,
        "lat": 52.375497,
        "lon": 4.9011058,
        "name": "Dum Dum Palace",
        "price": 0.0
    },
    {
        "id": 543,
        "lat": 52.3755423,
        "lon": 4.9010587,
        "name": "Wau",
        "price": 0.0
    },
    {
        "id": 544,
        "lat": 52.3752016,
        "lon": 4.9011422,
        "name": "Zilt",
        "price": 0.0
    },
    {
        "id": 545,
        "lat": 52.3723595,
        "lon": 4.9020474,
        "name": "Kyo",
        "price": 0.0
    },
    {
        "id": 546,
        "lat": 52.3361779,
        "lon": 4.8742579,
        "name": "Symphony's",
        "price": 0.0
    },
    {
        "id": 547,
        "lat": 52.3664591,
        "lon": 4.8970656,
        "name": "Three Sisters Pub",
        "price": 0.0
    },
    {
        "id": 548,
        "lat": 52.366428,
        "lon": 4.896148,
        "name": "Titus Parrilla",
        "price": 0.0
    },
    {
        "id": 549,
        "lat": 52.3610354,
        "lon": 4.9300561,
        "name": "Mi-Gudu",
        "price": 0.0
    },
    {
        "id": 550,
        "lat": 52.3600469,
        "lon": 4.9260867,
        "name": "Sranang Makmur",
        "price": 0.0
    },
    {
        "id": 551,
        "lat": 52.3541976,
        "lon": 4.9062854,
        "name": "ctaste",
        "price": 0.0
    },
    {
        "id": 552,
        "lat": 52.3552513,
        "lon": 4.9228914,
        "name": "Pazzi",
        "price": 0.0
    },
    {
        "id": 553,
        "lat": 52.3752896,
        "lon": 4.88688,
        "name": "De Luwte",
        "price": 0.0
    },
    {
        "id": 554,
        "lat": 52.370378,
        "lon": 4.8858097,
        "name": "Sous Bar Bistro",
        "price": 0.0
    },
    {
        "id": 555,
        "lat": 52.350072,
        "lon": 4.9183799,
        "name": "East57",
        "price": 0.0
    },
    {
        "id": 556,
        "lat": 52.3501867,
        "lon": 4.9182347,
        "name": "GAPP",
        "price": 0.0
    },
    {
        "id": 557,
        "lat": 52.3641394,
        "lon": 4.8836566,
        "name": "Maximus Pizzeria - Steakhouse",
        "price": 0.0
    },
    {
        "id": 558,
        "lat": 52.3647963,
        "lon": 4.8823749,
        "name": "Jimmy Woo",
        "price": 0.0
    },
    {
        "id": 559,
        "lat": 52.3638257,
        "lon": 4.8840967,
        "name": "NJOY Cocktailbar",
        "price": 0.0
    },
    {
        "id": 560,
        "lat": 52.3647599,
        "lon": 4.882715,
        "name": "Sumo",
        "price": 0.0
    },
    {
        "id": 561,
        "lat": 52.3649518,
        "lon": 4.8824083,
        "name": "Suzie Wong",
        "price": 0.0
    },
    {
        "id": 562,
        "lat": 52.3857237,
        "lon": 4.8656743,
        "name": "Rainarai",
        "price": 0.0
    },
    {
        "id": 563,
        "lat": 52.3572817,
        "lon": 4.8905157,
        "name": "Kaasbar",
        "price": 0.0
    },
    {
        "id": 564,
        "lat": 52.3570239,
        "lon": 4.8904953,
        "name": "Yuan's Hot Pot",
        "price": 0.0
    },
    {
        "id": 565,
        "lat": 52.3574228,
        "lon": 4.891031,
        "name": "Taj",
        "price": 0.0
    },
    {
        "id": 566,
        "lat": 52.3575174,
        "lon": 4.8896736,
        "name": "Linguini Trattoria",
        "price": 0.0
    },
    {
        "id": 567,
        "lat": 52.3572111,
        "lon": 4.8905496,
        "name": "Bardak",
        "price": 0.0
    },
    {
        "id": 568,
        "lat": 52.3672975,
        "lon": 4.8894442,
        "name": "Frens Haringhandel",
        "price": 0.0
    },
    {
        "id": 569,
        "lat": 52.3804606,
        "lon": 4.8879944,
        "name": "Caf\u00e9 't Papeneiland",
        "price": 0.0
    },
    {
        "id": 570,
        "lat": 52.3565041,
        "lon": 4.8907851,
        "name": "Simpel",
        "price": 0.0
    },
    {
        "id": 571,
        "lat": 52.3845831,
        "lon": 4.8748401,
        "name": "Chez Nina",
        "price": 0.0
    },
    {
        "id": 572,
        "lat": 52.3845876,
        "lon": 4.8752718,
        "name": "Piet de Gruyter",
        "price": 0.0
    },
    {
        "id": 573,
        "lat": 52.3813066,
        "lon": 4.8795506,
        "name": "Pie Nong Thai",
        "price": 0.0
    },
    {
        "id": 574,
        "lat": 52.3719783,
        "lon": 4.8903561,
        "name": "Beer Temple",
        "price": 0.0
    },
    {
        "id": 575,
        "lat": 52.3648567,
        "lon": 4.8897795,
        "name": "Pasta e Basta",
        "price": 0.0
    },
    {
        "id": 576,
        "lat": 52.3561902,
        "lon": 4.8921323,
        "name": "Zaza's",
        "price": 0.0
    },
    {
        "id": 577,
        "lat": 52.3446707,
        "lon": 4.8903816,
        "name": "Visaandeschelde",
        "price": 0.0
    },
    {
        "id": 578,
        "lat": 52.3864765,
        "lon": 4.9090476,
        "name": "Caf\u00e9 Modern",
        "price": 0.0
    },
    {
        "id": 579,
        "lat": 52.3664957,
        "lon": 4.889928,
        "name": "Seoul Sista",
        "price": 0.0
    },
    {
        "id": 580,
        "lat": 52.3664267,
        "lon": 4.8962313,
        "name": "Caf\u00e9 Monico",
        "price": 0.0
    },
    {
        "id": 581,
        "lat": 52.3664267,
        "lon": 4.896055,
        "name": "Tante Roosje",
        "price": 0.0
    },
    {
        "id": 582,
        "lat": 52.3657161,
        "lon": 4.8969539,
        "name": "De Maria",
        "price": 0.0
    },
    {
        "id": 583,
        "lat": 52.3813021,
        "lon": 4.8855063,
        "name": "Basilico",
        "price": 0.0
    },
    {
        "id": 584,
        "lat": 52.3561694,
        "lon": 4.9271778,
        "name": "The Cottage",
        "price": 0.0
    },
    {
        "id": 585,
        "lat": 52.3759775,
        "lon": 4.9275458,
        "name": "Pakhuis Wilhelmina",
        "price": 0.0
    },
    {
        "id": 586,
        "lat": 52.3748435,
        "lon": 4.8989394,
        "name": "Tibet",
        "price": 0.0
    },
    {
        "id": 587,
        "lat": 52.3665994,
        "lon": 4.8900626,
        "name": "Tokyo Ramen Takeichi",
        "price": 0.0
    },
    {
        "id": 588,
        "lat": 52.3638903,
        "lon": 4.9366018,
        "name": "Nur Kabab",
        "price": 0.0
    },
    {
        "id": 589,
        "lat": 52.3635194,
        "lon": 4.9358034,
        "name": "Mesken",
        "price": 0.0
    },
    {
        "id": 590,
        "lat": 52.364116,
        "lon": 4.9352161,
        "name": "The Meets",
        "price": 0.0
    },
    {
        "id": 591,
        "lat": 52.3635785,
        "lon": 4.9316948,
        "name": "Cafe Biljart Gijs de Rooy",
        "price": 0.0
    },
    {
        "id": 592,
        "lat": 52.3635227,
        "lon": 4.9334136,
        "name": "Derya Shoarma",
        "price": 0.0
    },
    {
        "id": 593,
        "lat": 52.3635898,
        "lon": 4.934516,
        "name": "Tarbush",
        "price": 0.0
    },
    {
        "id": 594,
        "lat": 52.3632475,
        "lon": 4.9295914,
        "name": "Mi Lobie",
        "price": 0.0
    },
    {
        "id": 595,
        "lat": 52.3634764,
        "lon": 4.9328591,
        "name": "Jemen",
        "price": 0.0
    },
    {
        "id": 596,
        "lat": 52.3609697,
        "lon": 4.9283474,
        "name": "Selam Habesha Restaurant",
        "price": 0.0
    },
    {
        "id": 597,
        "lat": 52.3620089,
        "lon": 4.9273625,
        "name": "Podiumcaf\u00e9 Kalemegdan",
        "price": 0.0
    },
    {
        "id": 598,
        "lat": 52.361959,
        "lon": 4.9248204,
        "name": "Roopram Roti",
        "price": 0.0
    },
    {
        "id": 599,
        "lat": 52.3626327,
        "lon": 4.9266136,
        "name": "Namoto Sushi",
        "price": 0.0
    },
    {
        "id": 600,
        "lat": 52.3624815,
        "lon": 4.9273572,
        "name": "Pita Queen",
        "price": 0.0
    },
    {
        "id": 601,
        "lat": 52.3571793,
        "lon": 4.9184467,
        "name": "Rotisserie Amsterdam",
        "price": 0.0
    },
    {
        "id": 602,
        "lat": 52.357938,
        "lon": 4.9177037,
        "name": "Bar Bukowski",
        "price": 0.0
    },
    {
        "id": 603,
        "lat": 52.3660675,
        "lon": 4.9270203,
        "name": "Dorst",
        "price": 0.0
    },
    {
        "id": 604,
        "lat": 52.3569932,
        "lon": 4.9178049,
        "name": "Sterren van de Hemel",
        "price": 0.0
    },
    {
        "id": 605,
        "lat": 52.3575413,
        "lon": 4.9181333,
        "name": "Het IJsboefje",
        "price": 0.0
    },
    {
        "id": 606,
        "lat": 52.357312,
        "lon": 4.9183452,
        "name": "Marmaris",
        "price": 0.0
    },
    {
        "id": 607,
        "lat": 52.3555496,
        "lon": 4.924756,
        "name": "Efes",
        "price": 0.0
    },
    {
        "id": 608,
        "lat": 52.373427,
        "lon": 4.9001332,
        "name": "Hoi Tin",
        "price": 0.0
    },
    {
        "id": 609,
        "lat": 52.3591613,
        "lon": 4.9256055,
        "name": "Pand 22",
        "price": 0.0
    },
    {
        "id": 610,
        "lat": 52.3636444,
        "lon": 4.9266757,
        "name": "Sushi'N'Sake",
        "price": 0.0
    },
    {
        "id": 611,
        "lat": 52.3604243,
        "lon": 4.9253187,
        "name": "Boom",
        "price": 0.0
    },
    {
        "id": 612,
        "lat": 52.3653396,
        "lon": 4.9261956,
        "name": "Caf\u00e9 Wu",
        "price": 0.0
    },
    {
        "id": 613,
        "lat": 52.3567877,
        "lon": 4.9119246,
        "name": "Roba",
        "price": 0.0
    },
    {
        "id": 614,
        "lat": 52.3557332,
        "lon": 4.9074809,
        "name": "Kees eten en drinken",
        "price": 0.0
    },
    {
        "id": 615,
        "lat": 52.3558178,
        "lon": 4.9074402,
        "name": "Loulou Pizzabar",
        "price": 0.0
    },
    {
        "id": 616,
        "lat": 52.3558078,
        "lon": 4.9078582,
        "name": "Pepenero",
        "price": 0.0
    },
    {
        "id": 617,
        "lat": 52.3558522,
        "lon": 4.9074188,
        "name": "Athene",
        "price": 0.0
    },
    {
        "id": 618,
        "lat": 52.3564041,
        "lon": 4.9103741,
        "name": "De Viersprong Eetcafe",
        "price": 0.0
    },
    {
        "id": 619,
        "lat": 52.3561912,
        "lon": 4.9095319,
        "name": "India Roti Room",
        "price": 0.0
    },
    {
        "id": 620,
        "lat": 52.3624358,
        "lon": 4.9281513,
        "name": "Vanni",
        "price": 0.0
    },
    {
        "id": 621,
        "lat": 52.3626253,
        "lon": 4.909486,
        "name": "Pool Lokaal \"De Gracht\"",
        "price": 0.0
    },
    {
        "id": 622,
        "lat": 52.3642547,
        "lon": 4.8810039,
        "name": "Grand Caf\u00e9 DeLaMar",
        "price": 0.0
    },
    {
        "id": 623,
        "lat": 52.3725793,
        "lon": 4.8912975,
        "name": "La Boca",
        "price": 0.0
    },
    {
        "id": 624,
        "lat": 52.3725149,
        "lon": 4.8910962,
        "name": "Burger Bistro",
        "price": 0.0
    },
    {
        "id": 625,
        "lat": 52.3725959,
        "lon": 4.8915763,
        "name": "La Piazza",
        "price": 0.0
    },
    {
        "id": 626,
        "lat": 52.3619696,
        "lon": 4.8736896,
        "name": "Khorat",
        "price": 0.0
    },
    {
        "id": 627,
        "lat": 52.3624583,
        "lon": 4.8733405,
        "name": "Dosa",
        "price": 0.0
    },
    {
        "id": 628,
        "lat": 52.3631469,
        "lon": 4.8760412,
        "name": "Kartika",
        "price": 0.0
    },
    {
        "id": 629,
        "lat": 52.3623193,
        "lon": 4.8753654,
        "name": "Trattoria Tot\u00f2",
        "price": 0.0
    },
    {
        "id": 630,
        "lat": 52.3473339,
        "lon": 4.8538524,
        "name": "Butchers Tears",
        "price": 0.0
    },
    {
        "id": 631,
        "lat": 52.3485973,
        "lon": 4.8570801,
        "name": "Tuin van Zuid",
        "price": 0.0
    },
    {
        "id": 632,
        "lat": 52.3652991,
        "lon": 4.8747733,
        "name": "Teds place",
        "price": 0.0
    },
    {
        "id": 633,
        "lat": 52.3656922,
        "lon": 4.8761265,
        "name": "Gertrude",
        "price": 0.0
    },
    {
        "id": 634,
        "lat": 52.364907,
        "lon": 4.8744261,
        "name": "Pastis",
        "price": 0.0
    },
    {
        "id": 635,
        "lat": 52.3651864,
        "lon": 4.87432,
        "name": "Zina",
        "price": 0.0
    },
    {
        "id": 636,
        "lat": 52.354594,
        "lon": 4.9126544,
        "name": "Baut oost",
        "price": 0.0
    },
    {
        "id": 637,
        "lat": 52.3751045,
        "lon": 4.898485,
        "name": "Kamasutra",
        "price": 0.0
    },
    {
        "id": 638,
        "lat": 52.3604692,
        "lon": 4.940447,
        "name": "Fook Sing",
        "price": 0.0
    },
    {
        "id": 639,
        "lat": 52.3618959,
        "lon": 4.9401696,
        "name": "Silk Road Kebab House",
        "price": 0.0
    },
    {
        "id": 640,
        "lat": 52.3635226,
        "lon": 4.8672763,
        "name": "Strangelove",
        "price": 0.0
    },
    {
        "id": 641,
        "lat": 52.3636692,
        "lon": 4.8762231,
        "name": "Hap Hmm",
        "price": 0.0
    },
    {
        "id": 642,
        "lat": 52.3624869,
        "lon": 4.9348568,
        "name": "Drovers dog",
        "price": 0.0
    },
    {
        "id": 643,
        "lat": 52.3753539,
        "lon": 4.8865459,
        "name": "De Pizzabakkers To Go",
        "price": 0.0
    },
    {
        "id": 644,
        "lat": 52.3747099,
        "lon": 4.8887675,
        "name": "Pane & Olio",
        "price": 0.0
    },
    {
        "id": 645,
        "lat": 52.3622131,
        "lon": 4.872408,
        "name": "Dionysos Taverna",
        "price": 0.0
    },
    {
        "id": 646,
        "lat": 52.3668556,
        "lon": 4.8714216,
        "name": "Vegan Sushi Bar",
        "price": 0.0
    },
    {
        "id": 647,
        "lat": 52.3769828,
        "lon": 4.9433629,
        "name": "Paon Bali",
        "price": 0.0
    },
    {
        "id": 648,
        "lat": 52.3579216,
        "lon": 4.8906578,
        "name": "Cafe Berkhout",
        "price": 0.0
    },
    {
        "id": 649,
        "lat": 52.3547401,
        "lon": 4.8878122,
        "name": "Floreyn",
        "price": 0.0
    },
    {
        "id": 650,
        "lat": 52.3547852,
        "lon": 4.8871618,
        "name": "Binnen Buiten",
        "price": 0.0
    },
    {
        "id": 651,
        "lat": 52.3575639,
        "lon": 4.8890537,
        "name": "Locals Coffee",
        "price": 0.0
    },
    {
        "id": 652,
        "lat": 52.3554208,
        "lon": 4.8908294,
        "name": "Eddy Bar",
        "price": 0.0
    },
    {
        "id": 653,
        "lat": 52.3566761,
        "lon": 4.8909192,
        "name": "O'Donnel's",
        "price": 0.0
    },
    {
        "id": 654,
        "lat": 52.3568454,
        "lon": 4.8917232,
        "name": "ecole",
        "price": 0.0
    },
    {
        "id": 655,
        "lat": 52.356191,
        "lon": 4.892436,
        "name": "Wijnbar",
        "price": 0.0
    },
    {
        "id": 656,
        "lat": 52.3558056,
        "lon": 4.8927766,
        "name": "Pilsvogel",
        "price": 0.0
    },
    {
        "id": 657,
        "lat": 52.3565111,
        "lon": 4.8924627,
        "name": "Venster 33",
        "price": 0.0
    },
    {
        "id": 658,
        "lat": 52.3566003,
        "lon": 4.8921411,
        "name": "Qlique",
        "price": 0.0
    },
    {
        "id": 659,
        "lat": 52.3554155,
        "lon": 4.8933305,
        "name": "Caf\u00e9 Flamingo",
        "price": 0.0
    },
    {
        "id": 660,
        "lat": 52.3544166,
        "lon": 4.8902823,
        "name": "Lunchroom \"Hannibal\"",
        "price": 0.0
    },
    {
        "id": 661,
        "lat": 52.3563255,
        "lon": 4.890765,
        "name": "Bar Bellini",
        "price": 0.0
    },
    {
        "id": 662,
        "lat": 52.3551804,
        "lon": 4.8900018,
        "name": "Caf\u00e9 Pico",
        "price": 0.0
    },
    {
        "id": 663,
        "lat": 52.3564272,
        "lon": 4.8907691,
        "name": "Soju Bar",
        "price": 0.0
    },
    {
        "id": 664,
        "lat": 52.3564701,
        "lon": 4.8904068,
        "name": "The Seafood Bar",
        "price": 0.0
    },
    {
        "id": 665,
        "lat": 52.3557906,
        "lon": 4.8903571,
        "name": "Sari Citra",
        "price": 0.0
    },
    {
        "id": 666,
        "lat": 52.3553553,
        "lon": 4.8896899,
        "name": "Saray",
        "price": 0.0
    },
    {
        "id": 667,
        "lat": 52.3553832,
        "lon": 4.889856,
        "name": "Spang Makandra",
        "price": 0.0
    },
    {
        "id": 668,
        "lat": 52.3560811,
        "lon": 4.8907224,
        "name": "Moksi",
        "price": 0.0
    },
    {
        "id": 669,
        "lat": 52.355762,
        "lon": 4.8925635,
        "name": "Brut de Mer",
        "price": 0.0
    },
    {
        "id": 670,
        "lat": 52.3560778,
        "lon": 4.8909128,
        "name": "Gollem 2",
        "price": 0.0
    },
    {
        "id": 671,
        "lat": 52.3558124,
        "lon": 4.8890004,
        "name": "Brasserie SenT",
        "price": 0.0
    },
    {
        "id": 672,
        "lat": 52.3559435,
        "lon": 4.8888207,
        "name": "Da Portare Via",
        "price": 0.0
    },
    {
        "id": 673,
        "lat": 52.3545108,
        "lon": 4.8886773,
        "name": "Orontes",
        "price": 0.0
    },
    {
        "id": 674,
        "lat": 52.3546442,
        "lon": 4.8892619,
        "name": "Auberge Jean & Marie",
        "price": 0.0
    },
    {
        "id": 675,
        "lat": 52.3549752,
        "lon": 4.8896402,
        "name": "Albina",
        "price": 0.0
    },
    {
        "id": 676,
        "lat": 52.3547524,
        "lon": 4.8872973,
        "name": "Monte Verde",
        "price": 0.0
    },
    {
        "id": 677,
        "lat": 52.3563227,
        "lon": 4.8980852,
        "name": "Arles",
        "price": 0.0
    },
    {
        "id": 678,
        "lat": 52.3562203,
        "lon": 4.8977712,
        "name": "Jeffrey's",
        "price": 0.0
    },
    {
        "id": 679,
        "lat": 52.3551485,
        "lon": 4.8930891,
        "name": "Chocolate Bar",
        "price": 0.0
    },
    {
        "id": 680,
        "lat": 52.3560468,
        "lon": 4.8978981,
        "name": "Caf\u00e9 Mansro",
        "price": 0.0
    },
    {
        "id": 681,
        "lat": 52.3557642,
        "lon": 4.8981683,
        "name": "Bar Fisk",
        "price": 0.0
    },
    {
        "id": 682,
        "lat": 52.3556155,
        "lon": 4.8982139,
        "name": "Artist",
        "price": 0.0
    },
    {
        "id": 683,
        "lat": 52.356516,
        "lon": 4.8994727,
        "name": "101 Gowrie",
        "price": 0.0
    },
    {
        "id": 684,
        "lat": 52.3568467,
        "lon": 4.8999159,
        "name": "",
        "price": 0.0
    },
    {
        "id": 685,
        "lat": 52.357297,
        "lon": 4.902082,
        "name": "Trattoria l'Angoletto",
        "price": 0.0
    },
    {
        "id": 686,
        "lat": 52.3563096,
        "lon": 4.8987826,
        "name": "Vamos a Ver",
        "price": 0.0
    },
    {
        "id": 687,
        "lat": 52.3524311,
        "lon": 4.8946789,
        "name": "De pizzakamer",
        "price": 0.0
    },
    {
        "id": 688,
        "lat": 52.3571344,
        "lon": 4.898533,
        "name": "Grand Vabre",
        "price": 0.0
    },
    {
        "id": 689,
        "lat": 52.356971,
        "lon": 4.8917264,
        "name": "Bar\u00e7a",
        "price": 0.0
    },
    {
        "id": 690,
        "lat": 52.3573485,
        "lon": 4.891505,
        "name": "De kleine Valk",
        "price": 0.0
    },
    {
        "id": 691,
        "lat": 52.357435,
        "lon": 4.8992646,
        "name": "Bar Hutspot",
        "price": 0.0
    },
    {
        "id": 692,
        "lat": 52.3520539,
        "lon": 4.8869523,
        "name": "Emperium Lounge",
        "price": 0.0
    },
    {
        "id": 693,
        "lat": 52.3506113,
        "lon": 4.8943445,
        "name": "Dopey's Elixer",
        "price": 0.0
    },
    {
        "id": 694,
        "lat": 52.3530525,
        "lon": 4.8943669,
        "name": "Griekse Traiterie Romios",
        "price": 0.0
    },
    {
        "id": 695,
        "lat": 52.3505507,
        "lon": 4.8898445,
        "name": "Cafe Plakhoek",
        "price": 0.0
    },
    {
        "id": 696,
        "lat": 52.3478993,
        "lon": 4.89153,
        "name": "Takumi Ramen",
        "price": 0.0
    },
    {
        "id": 697,
        "lat": 52.3538478,
        "lon": 4.899233,
        "name": "Restaurant Azmarino",
        "price": 0.0
    },
    {
        "id": 698,
        "lat": 52.354565,
        "lon": 4.9016793,
        "name": "Mozo",
        "price": 0.0
    },
    {
        "id": 699,
        "lat": 52.3536801,
        "lon": 4.9023728,
        "name": "Annavilaas",
        "price": 0.0
    },
    {
        "id": 700,
        "lat": 52.3533576,
        "lon": 4.9022117,
        "name": "Tapmarin",
        "price": 0.0
    },
    {
        "id": 701,
        "lat": 52.3569273,
        "lon": 4.8967966,
        "name": "Cafe de Baron",
        "price": 0.0
    },
    {
        "id": 702,
        "lat": 52.3556713,
        "lon": 4.888436,
        "name": "Maris Piper Brasserie",
        "price": 0.0
    },
    {
        "id": 703,
        "lat": 52.3547449,
        "lon": 4.8874016,
        "name": "Juuls",
        "price": 0.0
    },
    {
        "id": 704,
        "lat": 52.3556536,
        "lon": 4.8983333,
        "name": "Le Restaurant",
        "price": 0.0
    },
    {
        "id": 705,
        "lat": 52.3540959,
        "lon": 4.8903345,
        "name": "Manamana",
        "price": 0.0
    },
    {
        "id": 706,
        "lat": 52.3740475,
        "lon": 4.9003906,
        "name": "La Vida Argentinian Steakhouse",
        "price": 0.0
    },
    {
        "id": 707,
        "lat": 52.3722133,
        "lon": 4.8765783,
        "name": "Warie's Thai Food",
        "price": 0.0
    },
    {
        "id": 708,
        "lat": 52.3619264,
        "lon": 4.8517996,
        "name": "Meneer VAN LOON",
        "price": 0.0
    },
    {
        "id": 709,
        "lat": 52.3688813,
        "lon": 4.8885861,
        "name": "De Zwart",
        "price": 0.0
    },
    {
        "id": 710,
        "lat": 52.3649068,
        "lon": 4.8979951,
        "name": "Brug34",
        "price": 0.0
    },
    {
        "id": 711,
        "lat": 52.386492,
        "lon": 4.88492,
        "name": "PS",
        "price": 0.0
    },
    {
        "id": 712,
        "lat": 52.368119,
        "lon": 4.8441167,
        "name": "Floor 17",
        "price": 0.0
    },
    {
        "id": 713,
        "lat": 52.3762674,
        "lon": 4.8996592,
        "name": "Louis Bar",
        "price": 0.0
    },
    {
        "id": 714,
        "lat": 52.3761561,
        "lon": 4.8840094,
        "name": "Cafe de Prins",
        "price": 0.0
    },
    {
        "id": 715,
        "lat": 52.3653542,
        "lon": 4.8856662,
        "name": "Caf\u00e9 De Klos",
        "price": 0.0
    },
    {
        "id": 716,
        "lat": 52.3715796,
        "lon": 4.8832081,
        "name": "Verlan",
        "price": 0.0
    },
    {
        "id": 717,
        "lat": 52.3759653,
        "lon": 4.9005243,
        "name": "De Rode Laars",
        "price": 0.0
    },
    {
        "id": 718,
        "lat": 52.3770366,
        "lon": 4.881768,
        "name": "La Perla",
        "price": 0.0
    },
    {
        "id": 719,
        "lat": 52.3801502,
        "lon": 4.8876166,
        "name": "Libertine Petit Cafe",
        "price": 0.0
    },
    {
        "id": 720,
        "lat": 52.3716857,
        "lon": 4.8832208,
        "name": "Caf\u00e9 Van Puffelen",
        "price": 0.0
    },
    {
        "id": 721,
        "lat": 52.3557472,
        "lon": 4.8924763,
        "name": "Thrill Grill",
        "price": 0.0
    },
    {
        "id": 722,
        "lat": 52.3555256,
        "lon": 4.8754197,
        "name": "Le 4 Stagioni",
        "price": 0.0
    },
    {
        "id": 723,
        "lat": 52.3512033,
        "lon": 4.8945419,
        "name": "Renato's pizzeria",
        "price": 0.0
    },
    {
        "id": 724,
        "lat": 52.3713183,
        "lon": 4.8586814,
        "name": "Stoplicht",
        "price": 0.0
    },
    {
        "id": 725,
        "lat": 52.3556612,
        "lon": 4.9031351,
        "name": "Bloemers",
        "price": 0.0
    },
    {
        "id": 726,
        "lat": 52.3673515,
        "lon": 4.9095413,
        "name": "Cafe Smit & Voogt",
        "price": 0.0
    },
    {
        "id": 727,
        "lat": 52.3701143,
        "lon": 4.9121073,
        "name": "Cafe Kadijk",
        "price": 0.0
    },
    {
        "id": 728,
        "lat": 52.3814204,
        "lon": 4.8852774,
        "name": "Lucky House",
        "price": 0.0
    },
    {
        "id": 729,
        "lat": 52.3822033,
        "lon": 4.8833269,
        "name": "Palm Springs",
        "price": 0.0
    },
    {
        "id": 730,
        "lat": 52.3805948,
        "lon": 4.8861605,
        "name": "Tapas Cafe Duende",
        "price": 0.0
    },
    {
        "id": 731,
        "lat": 52.3771526,
        "lon": 4.8819405,
        "name": "Caf\u00e9 de Tuin",
        "price": 0.0
    },
    {
        "id": 732,
        "lat": 52.3779678,
        "lon": 4.8834292,
        "name": "Shahjahan Indian restaurant",
        "price": 0.0
    },